"stop_id","stop_name","stop_lon","stop_lat","stop_code"
"179037","Osnabrück Südstraße",8.096881,52.269109,""
"8613703","Roenne Havn(Faerge)",14.689956,55.099129,""
"895167","Hamburg Klein Borstel",10.03322,53.628269,""
"895667","Hamburg HBF/Steintordamm",10.006738,53.551879,""
"889228","Winsen(Luhe) ZOB",10.208761,53.361811,""
"896852","Kiefen Abzw. B 493",10.965599,52.993244,""
"899408","Salzwedel Bahnhofstraße",11.157096,52.858334,""
"899407","Salzwedel Schwimmhalle",11.15155,52.857741,""
"899406","Salzwedel Kaufland",11.151002,52.857723,""
"897521","Uelzen Albrecht-Thaer-/Eschemannstraße",10.549147,52.967679,""
"890103","Wolfsburg Hauptbahnhof",10.788197,52.428641,""
"892213","Wolfsburg VW Eingang 50a",10.78479,52.436048,""
"882208","Wolfsburg VW Design",10.747116,52.438798,""
"892209","Wolfsburg VW Eingang 104",10.74326,52.437989,""
"892223","Wolfsburg VW Eingang 97",10.739781,52.437765,""
"892210","Wolfsburg VW FE/Tor Nordwest",10.738091,52.44163,""
"890102","Fallersleben Bahnhofstraße",10.716886,52.420784,""
"890101","Lehre Rathaus",10.66989,52.330191,""
"894220","Neuerkerode",10.657827,52.211983,""
"894205","Sickte Birkenweg",10.639839,52.219039,""
"894202","Sickte Burschenhof",10.634239,52.213978,""
"896407","Ersehof",10.38851,52.368503,""
"896134","Wipshausen Rathausring",10.356023,52.38587,""
"909380","Wathlingen Schule",10.147644,52.538471,""
"909378","Wathlingen Villeparisisplatz",10.145334,52.536376,""
"909356","Wathlingen Kantallee",10.145316,52.53688,""
"909382","Wathlingen Heidland",10.139985,52.541096,""
"909384","Papenhorst(Celle)",10.125027,52.543064,""
"909354","Hänigsen Riedel",10.113674,52.491619,""
"909386","Nienhagen(b Celle) Hachehof",10.112865,52.552647,""
"909388","Nienhagen(b Celle) Herzogin-Agnes-Platz",10.107246,52.554939,""
"909350","Hänigsen Schule",10.094841,52.486163,""
"909390","Nienhagen(b Celle) Klosterhof",10.091587,52.560324,""
"909392","Nienhagen(b Celle) Schafstallweg",10.084261,52.555137,""
"909344","Hänigsen Sandgrubenweg",10.082697,52.487295,""
"909362","Hänigsen Mühlenweg",10.075335,52.48743,""
"909246","Hänigsen Königsberger Straße",10.074966,52.484706,""
"909333","Hänigsen Allensteiner Straße",10.072143,52.487628,""
"909394","Nienhagen-Nienhorst In der Behre",10.071874,52.553186,""
"909342","Obershagen Dachtmisser Weg",10.065923,52.488904,""
"909340","Obershagen Kampweg",10.060404,52.491008,""
"909336","Obershagen Abzw. Burgdorf",10.058669,52.495934,""
"990145","Wasserburg (Bodensee) Bahnhof",9.638782,47.571652,""
"909364","Obershagen Köhlergarten",10.058111,52.502181,""
"909396","Nienhagen-Nienhorst",10.057033,52.546759,""
"909328","Ehlershausen Bahnhof",10.029346,52.523513,""
"909324","Ehlershausen Alte Heerstraße",10.021552,52.520681,""
"909322","Ehlershausen Haydnstraße",10.014594,52.517472,""
"909316","Otze Worthstraße",10.01437,52.488077,""
"909314","Otze Freiengericht",10.009444,52.486342,""
"909326","Ehlershausen Waldstraße",10.008491,52.514766,""
"909318","Otze Lehmkuhlenweg",10.007745,52.488518,""
"909170","Eltze Schule",10.268531,52.448588,""
"909331","Eltze Kötnerstraße",10.265618,52.456031,""
"909298","Eltze Peiner Straße",10.262346,52.452471,""
"909296","Eltze Uetzer Straße",10.256926,52.456903,""
"909294","Eltze Mühle",10.251973,52.461227,""
"909292","Benrode",10.241689,52.4644,""
"882262","Kehl Bahnhof",7.807617,48.576403,""
"909238","Dedenhausen Bahnhof",10.239657,52.432227,""
"909237","Dedenhausen Der Zuschlag",10.23866,52.434484,""
"909260","Dedenhausen Eltzer Straße",10.236781,52.435248,""
"882311","Lahr(Schwarzwald) Bahnhof",7.835483,48.339933,""
"882140","Friesenheim (Baden) Bahnhof,",7.864321,48.380537,""
"882997","Offenburg ZOB",7.945053,48.47523,""
"882055","Biberach(Baden) Bahnhof",8.033147,48.338432,""
"882037","Zell am Harmersbach Eisensprung",8.060888,48.345569,""
"882849","Zell am Harmersbach Schule",8.063108,48.349309,""
"882847","Zell am Harmersbach Bahnhof",8.064484,48.345201,""
"882850","Zell am Hammersbach Wallfahrtskirche",8.081042,48.350765,""
"882786","Zell am Harmersbach-Unterharmersbach Rössle",8.084826,48.352779,""
"882788","Zell am Harmersbach-Unterharmersbach-Schützen",8.085339,48.352958,""
"882787","Zell am Harmersbach-Unterharmersbach Schwarzer Adl",8.08808,48.354559,""
"882298","Zell am Harmersbach-Kirnbach-Grün Grüner Hof",8.104863,48.36291,""
"882500","Oberharmersbach Hagenbach",8.122275,48.370442,""
"882498","Oberharmersbach Dorf",8.125062,48.373571,""
"882501","Oberharmersbach Sportplatz",8.133476,48.377184,""
"882499","Oberharmersbach Firma Schöpf",8.13504,48.378065,""
"882502","Oberharmersbach Riersbach",8.140658,48.381086,""
"909290","Uetze Benroder Straße",10.217751,52.470584,""
"909285","Uetze Schmiedestraße",10.209867,52.466971,""
"909235","Uetze Kaiserstraße",10.204959,52.465748,""
"909370","Uetze Schulzentrum",10.204635,52.468373,""
"909374","Uetze Dollberger Straße",10.202361,52.463465,""
"909288","Uetze Marienstraße",10.200959,52.460912,""
"909280","Uetze Katenser Weg",10.199161,52.464013,""
"909222","Uetze Struckmanns Wiese",10.198936,52.457011,""
"909282","Uetze Klintsweg",10.19757,52.462548,""
"909278","Uetze Forststraße",10.193057,52.464364,""
"909227","Dollbergen Moorweg",10.182279,52.405206,""
"909254","Dollbergen Bahnhof",10.181668,52.41682,""
"909252","Dollbergen Schule",10.181614,52.409458,""
"909233","Dollbergen Bahnhof/Nordseite",10.179376,52.416883,""
"909276","Uetze Salzwedeler Straße",10.178216,52.465074,""
"909248","Dollbergen Am Kapellenberg",10.177272,52.409188,""
"909264","Katensen(Uetze) Springweg",10.177083,52.432353,""
"909231","Dollbergen Greiser Weg",10.176418,52.41024,""
"909250","Dollbergen Schwüblingser Straße",10.174656,52.405997,""
"909262","Katensen(Uetze) An der Schule",10.166386,52.434834,""
"909274","Dahrenhorst Irenensee",10.160175,52.4644,""
"909272","Altmerdingsen Krausenburg",10.147797,52.463186,""
"909257","Krätze Am Tiefen Moor",10.143158,52.450448,""
"909256","Krätze Krätzer Straße",10.139787,52.453837,""
"909270","Altmerdingsen Friedhof",10.133351,52.45968,""
"940918","Remchingen-Wilferdingen Bahnhof",8.571313,48.953591,""
"940382","Königsbach-Stein Bahnhof",8.609904,48.962193,""
"909268","Altmerdingsen Kreuzweg",10.133027,52.459069,""
"909266","Altmerdingsen Schilfbruchstraße",10.128569,52.46386,""
"909366","Hänigsen Altmerdingser Straße",10.100271,52.479636,""
"940312","Ispringen Bahnhof",8.672271,48.914595,""
"940370","Pforzheim ZOB/Hbf",8.704525,48.893741,""
"909352","Hänigsen Am Pappaul",10.094688,52.483106,""
"909348","Hänigsen Friedhof",10.090176,52.483196,""
"909368","Hänigsen Dornbusch",10.088522,52.481731,""
"909346","Hänigsen Berliner Platz",10.082688,52.483403,""
"909098","Dachtmissen(Burgdorf)",10.048034,52.46422,""
"909062","Weferlingsen Dammbruch",10.047765,52.483745,""
"909060","Weferlingsen Rieheweg",10.046605,52.480931,""
"908989","Hülptingsen Färberstraße",10.039432,52.446871,""
"909038","Hülptingsen Mitte",10.033454,52.447239,""
"909096","Sorgensen Siedlerweg",10.031539,52.462188,""
"908995","Burgdorf(Kreis Hannover) Duderstädter Weg",10.026397,52.442358,""
"909036","Burgdorf(Kreis Hannover) Ostlandring",10.026361,52.445909,""
"908997","Burgdorf(Kreis Hannover) Schwüblingser Weg",10.026298,52.439859,""
"908993","Burgdorf(Kreis Hannover) Betriebshof",10.02575,52.444722,""
"909094","Sorgensen Plantagenweg",10.024617,52.460103,""
"909026","Burgdorf(Kreis Hannover) Uhlandstraße",10.023017,52.437441,""
"909034","Burgdorf(Kreis Hannover) Hülptingser Weg",10.021264,52.444992,""
"909028","Burgdorf(Kreis Hannover) Reuterstraße",10.020599,52.440147,""
"909086","Burgdorf(Kreis Hannover) Velper Straße",10.020258,52.454736,""
"909090","Burgdorf(Kreis Hannover) Grenzstraße",10.018774,52.450889,""
"909022","Burgdorf(Kreis Hannover) Scharlemannstraße",10.017822,52.435931,""
"909024","Burgdorf(Kreis Hannover) Rubensplatz",10.017327,52.438106,""
"909030","Burgdorf(Kreis Hannover) Raabeweg",10.015323,52.443176,""
"909032","Burgdorf(Kreis Hannover) Peiner Weg",10.014406,52.443922,""
"909092","Burgdorf(Kreis Hannover) Im langen Mühlenfeld",10.013732,52.449963,""
"909042","Burgdorf(Kreis Hannover) Heinrichstraße",10.013192,52.451257,""
"909020","Burgdorf(Kreis Hannover) Schulzentrum",10.013174,52.43532,""
"909010","Burgdorf(Kreis Hannover) Immenser Straße",10.012878,52.442304,""
"909044","Burgdorf(Kreis Hannover) Am Nassen Berg",10.012869,52.456363,""
"909008","Burgdorf(Kreis Hannover) Kleiner Brückendamm",10.012806,52.447212,""
"909048","Burgdorf(Kreis Hannover) Im Radhop",10.012599,52.461361,""
"909012","Burgdorf(Kreis Hannover) Depenauerweg",10.012392,52.440372,""
"909312","Otze Burgdorfer Straße",10.011736,52.480814,""
"909046","Burgdorf(Kreis Hannover) Bergstraße",10.010406,52.447122,""
"909058","Burgdorf(Kreis Hannover) Wallgartenstraße",10.009489,52.449783,""
"909014","Burgdorf(Kreis Hannover) Geibelstraße",10.008302,52.438996,""
"909000","Burgdorf(Kreis Hannover) Spittaplatz",10.007106,52.446502,""
"909018","Burgdorf(Kreis Hannover) Stadtfriedhof",10.006783,52.435643,""
"909016","Burgdorf(Kreis Hannover) Paradiesweg",10.005021,52.438034,""
"909004","Burgdorf(Kreis Hannover) Bahnhofstraße",10.004365,52.446161,""
"909110","Burgdorf(Kreis Hannover) Bahnhof",10.003691,52.44901,""
"909002","Burgdorf(Kreis Hannover) Bahnhof/Westseite",10.002765,52.449451,""
"909168","Steinwedel Depenauer Ring",10.002693,52.418042,""
"909052","Burgdorf(Kreis Hannover) Marris Mühlenweg",10.000499,52.451383,""
"909054","Burgdorf(Kreis Hannover) Meisenweg",10.000302,52.454619,""
"909242","Schwüblingsen An der Kapelle",10.136848,52.411561,""
"909200","Sievershausen(Lehrte) Zeisigweg",10.135697,52.368467,""
"909192","Sievershausen(Lehrte) Oelerser Straße",10.131634,52.373995,""
"909244","Schwüblingsen Arpker Straße",10.13149,52.405044,""
"909194","Sievershausen(Lehrte) Berliner Straße",10.127787,52.371029,""
"909216","Sievershausen(Lehrte) Siemensstraße",10.126088,52.360898,""
"909162","Sievershausen(Lehrte) Kleegarten",10.125342,52.372027,""
"909240","Schwüblingsen Grafhornstraße",10.12482,52.413799,""
"909202","Hämelerwald Schulzentrum",10.117899,52.35866,""
"909204","Hämelerwald Starenweg",10.116074,52.356718,""
"909210","Hämelerwald Hildesheimer Straße",10.114222,52.346704,""
"909208","Hämelerwald Försterstraße",10.113395,52.352313,""
"909206","Hämelerwald Bahnhof",10.111525,52.354471,""
"909198","Arpke(Lehrte) Schlachterstraße",10.104334,52.381339,""
"909188","Arpke(Lehrte) Am alten Friedhof",10.101466,52.383209,""
"909190","Arpke(Lehrte) Teich",10.10019,52.385403,""
"909186","Arpke(Lehrte) Schwüblingser Straße",10.097808,52.387893,""
"909184","Immensen-Arpke Bahnhof",10.085079,52.392198,""
"909182","Immensen(Lehrte) Kirche",10.064916,52.394796,""
"909180","Immensen(Lehrte) Abzw. Lehrte",10.058938,52.394841,""
"909178","Immensen(Lehrte) Lüneburger Straße",10.058633,52.395875,""
"929176","Immensen(Lehrte) Steinbeck",10.056197,52.399552,""
"909482","Lehrte(b Hannover) Daimlerstraße",10.003061,52.379551,""
"896403","Wendeburg Ehrenkamp",10.388995,52.326649,""
"896419","Zweidorf Peiner Straße",10.38433,52.326352,""
"896536","Wahle Schule",10.362989,52.269055,""
"896538","Wahle Siersser Straße",10.361075,52.271995,""
"894215","Apelnstedt Mühle",10.615344,52.199128,""
"921714","Groß Lafferde Volksbank",10.244197,52.227183,""
"921715","Groß Lafferde Post",10.236125,52.226563,""
"921713","Steinbrück(Hildesh) B 1",10.220016,52.220675,""
"921712","Steinbrück(Hildesh) Ort",10.216106,52.216324,""
"921710","Hoheneggelsen Ort",10.182261,52.208791,""
"921709","Hoheneggelsen Abzw. Mölme",10.174396,52.209502,""
"921708","Mölme",10.159483,52.216639,""
"921728","Oedelum",10.125045,52.225889,""
"921729","Bierbergen Schützenhaus",10.12055,52.24038,""
"921719","Bierbergen Dorfplatz",10.115462,52.243607,""
"909213","Hämelerwald Gut Adolfshof",10.113521,52.332699,""
"909218","Hämelerwald Scharlemann",10.113386,52.322109,""
"909212","Hämelerwald Wohnpark",10.106302,52.342785,""
"921726","Ahstedt",10.104999,52.203182,""
"903735","Mehrum Kraftwerk",10.094122,52.312482,""
"921517","Adlum Antoniusheim",10.068701,52.211641,""
"921516","Adlum Brinkstraße",10.067397,52.212729,""
"921952","Soßmar Ortsmitte",10.05892,52.243103,""
"921948","Harber(Peine)",10.050803,52.265747,""
"903714","Haimar Backhausplatz",10.05039,52.307088,""
"993714","Haimar Backhausplatz",10.050336,52.306927,""
"903721","Haimar Schladweg",10.048745,52.308985,""
"993721","Haimar Schladweg",10.048628,52.308338,""
"903711","Dolgen(NDS)",10.048529,52.318316,""
"993711","Dolgen(NDS)",10.048412,52.318262,""
"921515","Hüddessum Adlumer Straße",10.03847,52.204584,""
"921836","Hüddessum Gasthof Witte",10.034658,52.204009,""
"921945","Rautenberg Kirche",10.034416,52.220657,""
"921514","Hüddessum Hogesmühle",10.026622,52.205268,""
"903701","Evern",10.023961,52.316959,""
"993701","Evern",10.023449,52.316887,""
"903661","Klein Lobke",10.014451,52.285308,""
"993661","Klein Lobke",10.014262,52.28529,""
"921521","Groß Lobke",10.011583,52.270215,""
"921513","Borsum(Hildesh) Kirche",10.01072,52.206176,""
"903695","Rethmar Vor dem Dorf",10.007853,52.315565,""
"921512","Borsum(Hildesh) Kolpingstraße",10.005965,52.209061,""
"921511","Borsum(Hildesh) Volksbank",10.005057,52.205636,""
"903693","Rethmar Dorfstraße",10.004104,52.314927,""
"903691","Rethmar Triftstraße",10.002828,52.316177,""
"921749","Söhlde Molkerei",10.236799,52.189168,""
"921748","Söhlde Woltwiescher Straße",10.235774,52.193177,""
"921745","Söhlde Gent",10.230417,52.185698,""
"921747","Söhlde Im Teiche",10.230345,52.187936,""
"921744","Söhlde Bockmühlenstraße",10.22612,52.188467,""
"921743","Groß Himstedt",10.201238,52.185402,""
"921741","Bettrum Konservenfabrik",10.180886,52.181051,""
"921740","Bettrum Mitte",10.171303,52.179118,""
"921739","Nettlingen Landwehr",10.160687,52.16238,""
"921738","Nettlingen Am kl. Wasser",10.160049,52.159818,""
"921979","Holle-Grasdorf Siedlung",10.156345,52.106359,""
"921737","Nettlingen Schloss",10.154341,52.162245,""
"921903","Sottrum(Hildesh) Kirche",10.147545,52.077567,""
"921736","Nettlingen Helmerser Straße",10.14652,52.165922,""
"921707","Feldbergen Abzw. Mölme",10.145612,52.200144,""
"921980","Derneburg Campingplatz",10.142259,52.103051,""
"921735","Dingelbe Zuckerfabrik",10.139913,52.174048,""
"921907","Derneburg Siedlung",10.124748,52.098548,""
"921705","Garbolzum Abzw. Garmissen",10.122195,52.197168,""
"921704","Schellerten Bundesstraße 1",10.100711,52.187352,""
"921720","Schellerten Seniorenheim",10.099183,52.18453,""
"921824","Farmsen(Schellerten) Heerstraße",10.092468,52.168834,""
"921732","Ottbergen(Schellerten) Mitte",10.081393,52.149256,""
"921731","Ottbergen(Schellerten) Ziegelei",10.076449,52.143584,""
"921830","Hockeln(Bad Salzdetfurth)",10.072305,52.093819,""
"921702","Kemme Kaufhaus",10.069941,52.180359,""
"921886","Listringen(Bad Salzdetfurth)",10.068422,52.101164,""
"921822","Dinklar(Schellerten) Kleine Seite",10.067478,52.165958,""
"921811","Bad Salzdetfurth-Wesseln Bünter Jägerheim",10.06168,52.067463,""
"922202","Dinklar(Schellerten) Volksbank",10.060107,52.167675,""
"921887","Heinde(Bad Salzdetfurth) Gasthof Ohms",10.041194,52.102611,""
"921701","Bettmar(Schellerten) Paß",10.036357,52.171351,""
"921831","Klein Düngen",10.035342,52.094404,""
"921827","Bad Salzdetfurth-Wesseln Bahnhof/Eurobahn",10.034578,52.080381,""
"921834","Machtsum Neustadt",10.034146,52.193923,""
"921136","Heinde(Bad Salzdetfurth)",10.033993,52.103708,""
"921970","Heinde(Bad Salzdetfurth) Abzw. Itzum",10.032923,52.101379,""
"921835","Bad Salzdetfurth-Wesseln Kirche",10.032222,52.08314,""
"921753","Bad Salzdetfurth-Wesseln Detfurther Straße",10.03153,52.083509,""
"921832","Bad Salzdetfurth-Wesseln Steinbeck",10.030191,52.08127,""
"921135","Lechstedt(Bad Salzdetfurth)",10.025453,52.114369,""
"921752","Groß Düngen Gasthaus Bock",10.024006,52.095078,""
"921100","Hildesheim-Uppen",10.023557,52.13908,""
"921754","Bad Salzdetfurth Kirche",10.019377,52.073387,""
"922197","Bad Salzdetfurth Solebad",10.018199,52.071427,""
"921751","Groß Düngen Kindergarten",10.017633,52.094646,""
"921099","Hildesheim-Einum Schmiede",10.016006,52.160915,""
"921098","Hildesheim-Einum An der Klus",10.014424,52.164627,""
"921755","Bad Salzdetfurth Detfurther Allee",10.01294,52.068641,""
"921097","Hildesheim-Einum Hotel Hansa",10.011412,52.160672,""
"921757","Bad Salzdetfurth Kronprinz",10.008338,52.064317,""
"921833","Hönnersum Einumer Straße",10.00832,52.18559,""
"921096","Hildesheim-Achtum Feuerwehr",10.008149,52.151512,""
"921095","Hildesheim-Achtum",10.006199,52.148069,""
"921094","Hildesheim-Achtum Kirschenweg",10.005749,52.144833,""
"921067","Hildesheim-Itzum",10.000077,52.11169,""
"897700","Goslar Bahnhof Oker",10.479112,51.905163,""
"895112","Ringelheim(Salzgitter) Wallmoder Straße",10.307418,52.036702,""
"921803","Mahlum",10.167726,52.003595,""
"922826","Wohldenberg(Hildesheim)",10.156768,52.06189,""
"921801","Bockenem Martin-Luther-Straße",10.137342,52.01013,""
"921797","Hary",10.095381,52.005725,""
"921796","Störy",10.08498,52.009213,""
"921794","Upstedt",10.070615,52.032828,""
"921788","Bültum Wendeplatz",10.065698,52.022148,""
"921787","Groß Ilde",10.042991,52.011406,""
"921786","Klein Ilde",10.035836,52.014463,""
"921837","Neuhof b Lamspringe",10.032276,51.980456,""
"921791","Wehrstedt Lammetal",10.024734,52.046473,""
"921781","Helmscherode Landesstraße",10.024438,51.922134,""
"921790","Wehrstedt Pülm",10.017974,52.046168,""
"9121838","Lamspringe-Lammetal",10.017084,51.966406,""
"921780","Gehrenrode Sportplatz",10.015404,51.932706,""
"921828","Wehrstedt Dorfstraße",10.014936,52.043839,""
"921778","Lamspringe Ratskeller",10.014469,51.964608,""
"921789","Wehrstedt Schmiede",10.012006,52.046024,""
"921777","Lamspringe Kloster-Apotheke",10.010648,51.959215,""
"921764","Bodenburg Markt",10.009839,52.02605,""
"921965","Lamspringe Hindenburgstraße",10.009525,51.958262,""
"921776","Lamspringe Bismarckstraße",10.00636,51.958837,""
"921756","Bad Salzdetfurth Bahnhof",10.005318,52.060362,""
"921829","Wehrstedt Ahnepaule",10.005102,52.044621,""
"921765","Bodenburg Sehlemer Straße",10.003052,52.026104,""
"921759","Bad Salzdetfurth Neuer Krug",10.002684,52.054159,""
"921760","Bad Salzdetfurth Klusbrücke",10.002639,52.048532,""
"890104","Bad Grund Arboretum",10.228718,51.815801,""
"921782","Altgandersheim Krümpel",10.039108,51.903356,""
"921783","Dankelsheim Schülerkamp",10.03402,51.894897,""
"921784","Ackenhausen Meinesiedlung",10.032923,51.884461,""
"921683","Brunshausen(Bad Gandersheim) Hildesheimer Straße",10.029975,51.880721,""
"921685","Bad Gandersheim Albert-Rohloff-Straße",10.029813,51.872568,""
"894131","Dankelsheim Ortsmitte",10.008482,51.90092,""
"921682","Clus(Bad Gandersheim) Ortsmitte",10.007862,51.884838,""
"890573","Pöhlde Herzberger Straße",10.32225,51.612726,""
"894694","Northeim Mühlentor",10.001578,51.70856,""
"891107","Gieboldehausen Martin-Luther-Ring",10.221607,51.602604,""
"891101","Gieboldehausen Göttinger Landstraße",10.208384,51.603395,""
"891150","Obernfeld Wurthweg",10.232295,51.558494,""
"891203","Ebergötzen Seeburger Straße",10.115768,51.57365,""
"894451","Gillersheim Emil-Koch-Straße",10.095704,51.634264,""
"898248","Oberhaverbeck Ortsmitte",9.920612,53.142735,""
"891023","Reimerdingen Ost",9.812175,53.053319,""
"898190","Ahlfden",9.843593,53.010243,""
"909586","Winsen(Aller) Küsterdamm",9.906535,52.680806,""
"908294","Esperke Lange Straße",9.609999,52.635554,""
"908280","Esperke Postweg",9.608812,52.632273,""
"908281","Esperke Neustädter Straße",9.606691,52.632947,""
"908288","Esperke Osterberg",9.603949,52.628534,""
"908485","Niedernstöcken Friedhof",9.573925,52.652841,""
"908270","Stöckendrebber Süd",9.573898,52.661452,""
"908268","Niedernstöcken Molkerei",9.573826,52.649434,""
"908266","Niedernstöcken Süd",9.573683,52.641694,""
"908264","Brase Dinstorf",9.573683,52.633972,""
"908260","Brase Abzweig",9.572927,52.625837,""
"908272","Stöckendrebber Löxterstraße",9.572883,52.666405,""
"908483","Laderholz Wassermühle",9.48771,52.626502,""
"945089","Esens Hoher Weg",7.625118,53.63173,""
"925361","Wiesmoor Schulzentrum",7.733663,53.41571,""
"906932","Fuhrberg Zur alten Burg",9.851773,52.564854,""
"906935","Fuhrberg Alte Burgwedeler Straße",9.847988,52.563578,""
"906937","Fuhrberg Dorfstraße",9.843988,52.562787,""
"909320","Ramlingen Messenberg",9.996355,52.509463,""
"906796","Engensen Am Lahberg",9.951086,52.514676,""
"906740","Engensen Finkenweg",9.94811,52.506721,""
"906760","Engensen Alter Postweg",9.94402,52.501031,""
"906788","Engensen Kapellenstraße",9.940622,52.497938,""
"906659","Wettmar Hinter den Höfen",9.928586,52.507467,""
"906784","Wettmar Celler Weg",9.924621,52.509948,""
"906782","Wettmar Lönsweg",9.92072,52.513759,""
"906778","Wettmar Schule",9.918059,52.510568,""
"906786","Wettmar Moodweg",9.91432,52.516879,""
"906798","Wettmar Gartenstraße",9.912621,52.513013,""
"906780","Wettmar Thönser Trift",9.909151,52.51544,""
"906794","Thönse Engenser Straße",9.906499,52.494738,""
"906774","Thönse Wettmarer Straße",9.906436,52.495484,""
"906772","Thönse Bruchstraße",9.902652,52.493453,""
"906776","Thönse Kleinburgwedeler Straße",9.895631,52.493983,""
"906973","Kleinburgwedel Radenstraße",9.883694,52.508735,""
"906920","Kleinburgwedel Bergstraße",9.877788,52.509732,""
"906922","Kleinburgwedel Im Heidewinkel",9.870884,52.524151,""
"906924","Kleinburgwedel Tempelweg",9.870318,52.51313,""
"906968","Kleinburgwedel Lerchenstraße",9.868879,52.509642,""
"906501","Großburgwedel Rhadener Weg",9.867468,52.498694,""
"906465","Großburgwedel Thönser Straße",9.862542,52.493884,""
"906461","Großburgwedel Rathaus",9.86211,52.494478,""
"906792","Großburgwedel Burgdorfer Straße",9.861625,52.489713,""
"906463","Großburgwedel Krankenhaus",9.860474,52.49446,""
"906926","Kleinburgwedel Würmseeweg",9.86034,52.517571,""
"906441","Großburgwedel Von-Alten-Straße",9.860088,52.492473,""
"906421","Großburgwedel Schulzentrum",9.859522,52.484572,""
"906431","Großburgwedel Pestalozzistift",9.859423,52.487996,""
"906491","Großburgwedel Bahnhof",9.858083,52.506218,""
"906483","Großburgwedel Pappelweg",9.856825,52.502874,""
"906928","Kleinburgwedel Seckhorn",9.856052,52.532583,""
"906481","Großburgwedel Am Schützenplatz",9.855953,52.499413,""
"906451","Großburgwedel Am Markt",9.854299,52.491844,""
"906471","Großburgwedel Dammstraße",9.849175,52.494729,""
"906507","Großburgwedel Ehlbeek",9.845076,52.487529,""
"906511","Großburgwedel In der Meineworth",9.844357,52.491583,""
"906505","Großburgwedel Kokenhorststraße",9.84219,52.488958,""
"906941","Fuhrberg Schlesische Straße",9.841579,52.567398,""
"906503","Großburgwedel Im Steinkamp",9.84033,52.492527,""
"906521","Großburgwedel Raiffeisenstraße",9.839772,52.495574,""
"906939","Fuhrberg Schützenstraße",9.838028,52.563578,""
"906513","Großburgwedel Isernhagener Straße",9.832069,52.488886,""
"906539","Isernhagen Eisenstraße",9.810431,52.484679,""
"906848","Großburgwedel Sprachheilheim",9.805838,52.512923,""
"906555","Isernhagen Bahnhof",9.802116,52.484868,""
"906831","Bissendorf(Wedemark) Bussardweg",9.794916,52.515773,""
"906846","Bissendorf(Wedemark) Wietze-Aue",9.790484,52.519252,""
"906844","Bissendorf(Wedemark) Natelsheideweg",9.784749,52.519836,""
"906826","Bissendorf(Wedemark) Ahornweg",9.78457,52.519647,""
"906978","Gailhof An der Autobahn",9.783491,52.553321,""
"906966","Bissendorf(Wedemark) Kreihnbrink",9.782853,52.517014,""
"906964","Bissendorf(Wedemark) Isernhägener Damm",9.776848,52.508636,""
"906868","Gailhof Hessenweg",9.775643,52.553339,""
"906916","Meitze Fuhrberger Weg",9.770942,52.562625,""
"892310","Hann. Münden Gimter Straße/Auefeld",9.642252,51.432303,""
"906866","Gailhof Am Dreieck",9.76616,52.552179,""
"906870","Meitze Ortsmitte",9.764389,52.566248,""
"906827","Maspe",9.759975,52.495215,""
"892251","Hann. Münden Schröderstraße",9.643196,51.408814,""
"906852","Bissendorf(Wedemark) Mellendorfer Straße",9.754537,52.525149,""
"906842","Bissendorf(Wedemark) Feuerwehrhaus",9.753997,52.521059,""
"996822","Twenge",9.753476,52.48752,""
"892212","Hann. Münden Gimter Straße/Weserpark",9.644392,51.427081,""
"906822","Twenge",9.753314,52.487538,""
"892207","Hann. Münden Pionierbrücke",9.645147,51.415592,""
"892208","Hann. Münden Fischerweg",9.645417,51.419008,""
"996601","Maspe Abzweigung",9.752999,52.489776,""
"906601","Maspe Abzweigung",9.75291,52.489722,""
"906838","Bissendorf(Wedemark) Am Mühlenberg",9.751588,52.524196,""
"906914","Bissendorf(Wedemark) Schule",9.750698,52.526434,""
"906908","Mellendorf Am Freizeitpark",9.749476,52.546516,""
"906854","Wennebostel",9.74926,52.530911,""
"906840","Bissendorf(Wedemark) Bahnhof",9.74864,52.523036,""
"906836","Bissendorf(Wedemark) Scherenbosteler Straße",9.746266,52.523423,""
"906864","Mellendorf Bahnhof",9.74419,52.548359,""
"906828","Altenhorst",9.741961,52.489713,""
"996828","Altenhorst",9.741853,52.489767,""
"892220","Hann. Münden Blume",9.653417,51.420006,""
"906904","Hoheheide",9.741349,52.599472,""
"906981","Bissendorf(Wedemark) Müdener Weg",9.741116,52.522902,""
"906993","Mellendorf Rotkamp",9.740468,52.552224,""
"906983","Mellendorf Bunzlauer Weg",9.739579,52.543307,""
"906954","Elze(Wedemark) Okerstraße",9.738167,52.585565,""
"906892","Elze(Wedemark) Schule",9.736675,52.580109,""
"906872","Sommerbostel",9.735713,52.558436,""
"906856","Mellendorf Ortseingang",9.734536,52.545375,""
"906860","Mellendorf Schulzentrum",9.7329,52.549662,""
"906899","Mellendorf Gilborn",9.73076,52.544188,""
"906874","Hellendorf Schule",9.730041,52.562005,""
"906812","Kaltenweide Autobahn",9.729574,52.488446,""
"906944","Elze(Wedemark) Am Bahndamm",9.729394,52.579174,""
"906814","Kaltenweide Kiebitzkrug",9.728791,52.494612,""
"906894","Elze(Wedemark) Am Bahnhof/L 190",9.728477,52.580441,""
"906896","Elze(Wedemark) Plumhofer Straße/L 190",9.728117,52.588244,""
"906985","Mellendorf Kreuzkamp",9.727713,52.542381,""
"906948","Schlage-Ickhorst",9.72756,52.509076,""
"906858","Mellendorf Berliner Straße",9.727389,52.547199,""
"906832","Scherenbostel Am Husalsberg",9.726149,52.521814,""
"906979","Scherenbostel Im Winkel",9.725816,52.525149,""
"906876","Hellendorf Andersenweg",9.72516,52.563146,""
"906902","Berkhof Allerbusch",9.725052,52.602195,""
"906910","Berkhof Berkhofer Straße",9.724225,52.601764,""
"906960","Scherenbostel Ostpreußenweg",9.722499,52.525032,""
"906962","Scherenbostel Schule",9.717753,52.524807,""
"906912","Berkhof Auf den Raden/Siedlung",9.717375,52.598959,""
"906900","Sprockhof",9.716863,52.609288,""
"906890","Bennemühlen Heidjerskamp",9.714633,52.574949,""
"906956","Scherenbostel Buchholz",9.71449,52.520924,""
"892229","Hann. Münden Am Hainbuchenbrunnen",9.671827,51.403592,""
"906906","Plumhof",9.710912,52.595624,""
"906878","Mellendorf Brelinger Straße/Siedlung",9.706759,52.551029,""
"908312","Wiechendorf Ortsmitte",9.6999,52.520178,""
"908344","Bestenbostel",9.698435,52.581439,""
"892304","Hermannshagen(H-MÜ) Zimmerbreite",9.677265,51.41855,""
"908342","Oegenbostel Burgstraße",9.691594,52.581349,""
"908491","Oegenbostel Ackerweg",9.690327,52.583453,""
"906886","Brelingen Windmühlenberg",9.68843,52.559416,""
"909398","Lehrte(b Hannover) Industriestraße",9.989155,52.373366,""
"909472","Lehrte(b Hannover) Herzogweg",9.988472,52.388063,""
"909474","Lehrte(b Hannover) Friedhof",9.988202,52.383749,""
"909174","Steinwedel Zum Braken",9.986458,52.407183,""
"892381","Hann. Münden-Laubach Talweg",9.708386,51.399007,""
"909136","Burgdorf(Kreis Hannover) Saalestraße",9.984939,52.457478,""
"909476","Lehrte(b Hannover) Markuskirche",9.98458,52.381906,""
"892380","Hann. Münden-Laubach Sportplatz",9.714732,51.403151,""
"909134","Burgdorf(Kreis Hannover) Havelstraße",9.9844,52.454952,""
"909470","Lehrte(b Hannover) Kreuzbuchenweg",9.983896,52.386994,""
"909410","Lehrte(b Hannover) Gneisenaustraße",9.983132,52.384351,""
"909140","Aligse Schule",9.982539,52.403417,""
"909408","Lehrte(b Hannover) Krankenhaus",9.982089,52.380396,""
"909439","Lehrte(b Hannover) Wasserturm",9.982072,52.374274,""
"891849","Wellersen(Scheden)",9.722571,51.482895,""
"909431","Lehrte(b Hannover) Stille Gasse",9.981424,52.370346,""
"892382","Hann. Münden-Laubach Zella",9.72507,51.394351,""
"909405","Lehrte(b Hannover) Zuckerpassage",9.98093,52.37626,""
"909810","Aligse Bahnhof",9.979617,52.402878,""
"909412","Lehrte(b Hannover) Auf den Blockäckern",9.979087,52.384656,""
"909074","Heeßel(Burgdorf) Heisterkampsweg",9.97906,52.443832,""
"909418","Lehrte(b Hannover) Am Gehrkamp",9.978961,52.382157,""
"909154","Röddensen",9.978674,52.416011,""
"909310","Schillerslage Rapsfeld",9.97808,52.466674,""
"909440","Lehrte(b Hannover) Berliner Allee",9.977118,52.372152,""
"909406","Lehrte(b Hannover) Gymnasium",9.976157,52.378445,""
"909416","Lehrte(b Hannover) Burgdorfer Straße",9.976103,52.382139,""
"909402","Lehrte(b Hannover) Neues Zentrum",9.97604,52.376926,""
"909424","Lehrte(b Hannover) Hoher Kamp",9.975761,52.381915,""
"909308","Schillerslage Im Dorfe",9.975024,52.465559,""
"909150","Aligse Teich",9.974763,52.40125,""
"909400","Lehrte(b Hannover) Rathaus",9.974566,52.3744,""
"909492","Lehrte(b Hannover) Schützenstraße",9.974485,52.383757,""
"909477","Aligse Rudolf-Petzold-Ring",9.973963,52.394634,""
"909433","Lehrte(b Hannover) Köhlerheide",9.9739,52.364691,""
"909152","Aligse Bruchgraben",9.973765,52.405754,""
"909488","Lehrte(b Hannover) Bahnhofstraße",9.972849,52.376764,""
"909338","Schillerslage Engenser Straße",9.971815,52.468238,""
"909304","Schillerslage Zollstraße",9.971392,52.467789,""
"909442","Lehrte(b Hannover) Iltener Straße",9.971329,52.369348,""
"909429","Lehrte(b Hannover) Knockenwinkel",9.971159,52.364988,""
"909480","Lehrte(b Hannover) Tiefe Straße",9.97097,52.386868,""
"909438","Lehrte(b Hannover) Große Moorstraße",9.970943,52.37484,""
"909434","Lehrte(b Hannover) Feldstraße",9.970907,52.372755,""
"909444","Lehrte(b Hannover) Südstraße",9.9707,52.366714,""
"909484","Lehrte(b Hannover) St.Bernward-Kirche",9.970502,52.37769,""
"909078","Heeßel(Burgdorf) Kolshorner Weg",9.969487,52.44172,""
"909453","Lehrte(b Hannover) Südring",9.969163,52.36426,""
"909449","Lehrte(b Hannover) Liebermannweg",9.968741,52.361096,""
"909446","Lehrte(b Hannover) Hardenbergstraße",9.968489,52.367586,""
"909430","Lehrte(b Hannover) Wilhelmstraße",9.966691,52.376728,""
"909452","Lehrte(b Hannover) Noldeweg",9.966143,52.361626,""
"909428","Lehrte(b Hannover) Goethestraße",9.96465,52.375164,""
"909458","Lehrte(b Hannover) Ahltener Straße",9.964632,52.373249,""
"909450","Lehrte(b Hannover) Markscheiderweg",9.964354,52.364997,""
"909456","Lehrte(b Hannover) Buchenweg",9.964201,52.369671,""
"909306","Klein Schillerslage",9.962547,52.462863,""
"909448","Lehrte(b Hannover) Beethovenring",9.961217,52.368035,""
"909454","Lehrte(b Hannover) Sauerweg",9.959365,52.363748,""
"909462","Lehrte(b Hannover) Schwanenburg",9.958187,52.372728,""
"909413","Lehrte(b Hannover) Am Sülterberg",9.955994,52.361275,""
"909158","Kolshorn",9.953216,52.420667,""
"909300","Schillerslage Moormühle",9.947805,52.454709,""
"909080","Beinhorn",9.943804,52.442556,""
"909160","Klein Kolshorn",9.942177,52.413683,""
"993523","Ilten Im Steinkamp",9.940712,52.346353,""
"910322","Ilten Im Steinkamp",9.940676,52.346398,""
"993525","Ilten Berliner Straße",9.940056,52.348646,""
"910320","Ilten Berliner Straße",9.939984,52.348637,""
"999144","Ilten Im Schleichgarten",9.937422,52.344205,""
"909144","Ilten Im Schleichgarten",9.937368,52.344106,""
"909302","Beinhorn Alte Bundesstraße 3",9.936182,52.451779,""
"910318","Ilten Jahnstraße",9.934869,52.347639,""
"993527","Ilten Jahnstraße",9.934797,52.347711,""
"909146","Ilten Otto-Heise-Straße",9.932721,52.345895,""
"909082","Stelle(Isernhagen) Stadtgut",9.931741,52.447931,""
"903517","Ilten Mühlenfeld",9.928631,52.343899,""
"993517","Ilten Mühlenfeld",9.928442,52.343917,""
"903521","Ilten Am Friedhof",9.928172,52.344286,""
"993521","Ilten Am Friedhof",9.9281,52.344439,""
"906754","Kirchhorst Blumenhof",9.923462,52.447931,""
"909493","Ahlten Ahornallee",9.920235,52.368341,""
"909129","Ahlten Umspannwerk",9.920235,52.377726,""
"906952","Stelle(Isernhagen) Mühlenweg",9.919695,52.446367,""
"909495","Ahlten Mühlenfeld",9.916792,52.367325,""
"906770","Oldhorst",9.915372,52.478189,""
"999130","Ahlten Am Dornbusch",9.91423,52.377204,""
"909130","Ahlten Am Dornbusch",9.913574,52.377123,""
"993501","Ahlten Mergelfeld",9.913034,52.358992,""
"903501","Ahlten Mergelfeld",9.912576,52.359424,""
"903511","Ahlten Edelerstraße",9.911686,52.364835,""
"993511","Ahlten Edelerstraße",9.911497,52.364727,""
"909132","Ahlten Im Kleifeld",9.911407,52.361266,""
"999132","Ahlten Im Kleifeld",9.911201,52.361383,""
"906950","Stelle(Isernhagen) Moorstraße",9.910221,52.444327,""
"909106","Ahlten Zum Großen Freien",9.909394,52.365249,""
"909104","Ahlten Erlengrund",9.907991,52.369141,""
"999104","Ahlten Erlengrund",9.907982,52.368952,""
"909102","Ahlten Sonnenweg",9.907164,52.371937,""
"999102","Ahlten Sonnenweg",9.906868,52.372557,""
"909126","Ahlten Roseneck",9.906355,52.374714,""
"999126","Ahlten Roseneck",9.906265,52.374633,""
"909108","Ahlten Bahnhof",9.905816,52.376566,""
"999108","Ahlten Bahnhof",9.905762,52.376404,""
"990300","Höver(Sehnde) Güldenbuschweg",9.899191,52.348915,""
"910300","Höver(Sehnde) Güldenbuschweg",9.899155,52.349158,""
"906748","Kirchhorst Neuwarmbüchener Straße",9.896422,52.44394,""
"906746","Kirchhorst Glockenheide",9.894795,52.449109,""
"993491","Höver(Sehnde) Brunnenstraße",9.894085,52.350938,""
"903491","Höver(Sehnde) Brunnenstraße",9.893528,52.350929,""
"906766","Neuwarmbüchen Breslauer Straße",9.89306,52.467618,""
"906762","Neuwarmbüchen Hinter den Höfen",9.892018,52.46333,""
"906758","Lohne(Isernhagen) Kastanienweg",9.891595,52.454808,""
"906987","Neuwarmbüchen Immenzaun",9.891182,52.465586,""
"906750","Kirchhorst Großhorst",9.890858,52.441414,""
"993489","Höver(Sehnde) Petersweg",9.889339,52.351288,""
"903489","Höver(Sehnde) Petersweg",9.889222,52.351396,""
"906764","Neuwarmbüchen Heisterkamp",9.885977,52.466683,""
"906738","Kirchhorst Gewerbegebiet",9.885258,52.437198,""
"903487","Höver(Sehnde) Gretlade",9.884098,52.352053,""
"993487","Höver(Sehnde) Gretlade",9.883685,52.35208,""
"906742","Kirchhorst Stellmacherstraße",9.882552,52.438151,""
"906756","Lohne(Iserhagen) Eichenkamp",9.881896,52.45381,""
"906790","Großburgwedel Am Heisterholz",9.881114,52.484338,""
"906744","Kirchhorst Schlosserstraße",9.880691,52.441261,""
"906989","Isernhagen Landesgut Lohne",9.873248,52.470324,""
"903483","Hannover Kleiner Holzhägen",9.873203,52.356233,""
"993483","Hannover Kleiner Holzhägen",9.873122,52.356161,""
"906714","Altwarmbüchen Am Walde",9.872646,52.43514,""
"906415","Isernhagen Am Wienkamp",9.866686,52.471699,""
"993481","Hannover Hindenburgschleuse",9.864124,52.358741,""
"903481","Hannover Hindenburgschleuse",9.864079,52.358839,""
"906712","Altwarmbüchen Friedhof",9.863261,52.434232,""
"903401","Hannover Hartmannstraße",9.863081,52.37342,""
"993401","Hannover Hartmannstraße",9.863063,52.37297,""
"993391","Hannover Kreisstraße",9.862506,52.380431,""
"993403","Hannover Max-Kuhlemann-Straße",9.862317,52.371101,""
"903403","Hannover Max-Kuhlemann-Straße",9.862146,52.371047,""
"906413","Isernhagen Luise-Stünkel-Straße",9.862057,52.473749,""
"903391","Hannover Kreisstraße",9.86203,52.380899,""
"993411","Hannover Bahnhof Anderten-Misburg",9.861122,52.36844,""
"993341","Hannover Freienwalder Straße",9.861032,52.395506,""
"903341","Hannover Freienwalder Straße",9.861023,52.395929,""
"903411","Hannover Bahnhof Anderten-Misburg",9.860996,52.368512,""
"993383","Hannover Am Hafen",9.86069,52.384468,""
"903383","Hannover Am Hafen",9.860663,52.384108,""
"903331","Hannover Ludwig-Jahn-Straße",9.860358,52.393385,""
"993331","Hannover Ludwig-Jahn-Straße",9.860007,52.393358,""
"903241","Hannover Im Wiesenhof",9.859827,52.363064,""
"993241","Hannover Im Wiesenhof",9.859791,52.363289,""
"993381","Hannover St.-Johanniskirche",9.859414,52.386382,""
"903381","Hannover St.-Johanniskirche",9.85882,52.386832,""
"993448","Hannover Ostergrube",9.858757,52.360817,""
"957479","Leipzig Altes Messegelände",12.404781,51.320693,""
"903461","Hannover Anderten",9.858641,52.358327,""
"903448","Hannover Ostergrube",9.858641,52.360988,""
"983461","Hannover Anderten",9.858155,52.358471,""
"993441","Hannover Am Kindergarten",9.857184,52.36675,""
"993351","Hannover Regenwalder Straße",9.857157,52.396504,""
"903441","Hannover Am Kindergarten",9.857041,52.366705,""
"986708","Altwarmbüchen Am Rischteich",9.856951,52.434421,""
"903351","Hannover Regenwalder Straße",9.856807,52.396594,""
"903361","Hannover Stadtfriedhof Misburg",9.856753,52.398868,""
"906708","Altwarmbüchen Am Rischteich",9.856447,52.434645,""
"996708","Altwarmbüchen Am Rischteich",9.856312,52.434466,""
"906704","Altwarmbüchen Seestraße",9.855935,52.43185,""
"906411","Isernhagen Lohner Weg",9.855872,52.474216,""
"993371","Hannover St.-Anna-Kirche",9.855629,52.389475,""
"903371","Hannover St.-Anna-Kirche",9.855351,52.3896,""
"996716","Altwarmbüchen Helleweg",9.854919,52.437909,""
"906716","Altwarmbüchen Helleweg",9.854829,52.437864,""
"996718","Altwarmbüchen Schulzentrum",9.854515,52.439787,""
"902501","Hannover Misburg",9.854227,52.39138,""
"906718","Altwarmbüchen Schulzentrum",9.854128,52.439724,""
"903311","Hannover Meyers Garten",9.853004,52.389753,""
"993311","Hannover Meyers Garten",9.852672,52.389861,""
"993471","Hannover Königsberger Ring",9.852402,52.359352,""
"903471","Hannover Königsberger Ring",9.851944,52.359334,""
"996702","Altwarmbüchen Bothfelder Straße",9.851827,52.431391,""
"973471","Hannover Königsberger Ring",9.851332,52.35946,""
"906702","Altwarmbüchen Bothfelder Straße",9.851099,52.431346,""
"906706","Altwarmbüchen Farrelweg",9.85046,52.433782,""
"996706","Altwarmbüchen Farrelweg",9.849903,52.434079,""
"983471","Hannover Königsberger Ring",9.849714,52.359819,""
"993301","Hannover Kampstraße",9.849031,52.390257,""
"903301","Hannover Kampstraße",9.849031,52.390158,""
"902431","Hannover Am Forstkamp",9.848627,52.392684,""
"966641","Altwarmbüchen",9.847494,52.437792,""
"906641","Altwarmbüchen",9.84735,52.437513,""
"996689","Altwarmbüchen Ernst-Grote-Straße",9.846676,52.426609,""
"996637","Altwarmbüchen Zentrum",9.846334,52.431212,""
"906637","Altwarmbüchen Zentrum",9.846245,52.431104,""
"906689","Altwarmbüchen Ernst-Grote-Straße",9.846128,52.426384,""
"906401","Isernhagen Isernhagenhof",9.846119,52.471978,""
"906724","Isernhagen Basselthof",9.845525,52.446224,""
"993091","Hannover Ostfeldstraße",9.844779,52.360484,""
"996734","Altwarmbüchen Schwanenkamp",9.84477,52.436893,""
"906734","Altwarmbüchen Schwanenkamp",9.844564,52.436929,""
"903091","Hannover Ostfeldstraße",9.844555,52.360439,""
"983091","Hannover Ostfeldstraße",9.844456,52.360646,""
"973091","Hannover Ostfeldstraße",9.844159,52.360556,""
"900881","Hannover Stadionbrücke",9.722697,52.357392,""
"994073","Langenhagen(Han) An der Autobahn",9.722688,52.426951,""
"990161","Hannover Königsworther Platz",9.722607,52.378058,""
"904041","Hannover Wohlenbergstraße",9.722544,52.417997,""
"904073","Langenhagen(Han) An der Autobahn",9.722526,52.426825,""
"904158","Langenhagen(Han) Hans-Böckler-Straße",9.722445,52.436039,""
"994041","Hannover Wohlenbergstraße",9.722436,52.418015,""
"970881","Hannover Stadionbrücke",9.722328,52.358884,""
"980841","Hannover-Linden Fischerhof",9.722265,52.352214,""
"970841","Hannover-Linden Fischerhof",9.72222,52.352538,""
"990841","Hannover-Linden Fischerhof",9.722148,52.353365,""
"970871","Hannover Allerweg",9.722068,52.362228,""
"994081","Langenhagen(Han) Uhlandstraße",9.722041,52.423328,""
"900841","Hannover-Linden Fischerhof",9.72178,52.353203,""
"900871","Hannover Allerweg",9.721582,52.361932,""
"970551","Hannover Schwarzer Bär",9.721303,52.368179,""
"900241","Hannover An der Strangriede",9.720953,52.390679,""
"910249","Hannover Gerberstraße",9.720917,52.375766,""
"990871","Hannover Allerweg",9.720881,52.361914,""
"904097","Langenhagen(Han) Gieseckenkamp",9.720881,52.432371,""
"930551","Hannover Schwarzer Bär",9.720836,52.368107,""
"970241","Hannover An der Strangriede",9.720791,52.390949,""
"994097","Langenhagen(Han) Gieseckenkamp",9.720782,52.432794,""
"980871","Hannover Allerweg",9.720764,52.361851,""
"990249","Hannover Gerberstraße",9.720755,52.375802,""
"990551","Hannover Schwarzer Bär",9.719802,52.367298,""
"990378","Hannover Voltmerstraße",9.719712,52.396954,""
"900378","Hannover Voltmerstraße",9.719631,52.397026,""
"900551","Hannover Schwarzer Bär",9.719326,52.367307,""
"900461","Hannover Glocksee",9.719281,52.373663,""
"980551","Hannover Schwarzer Bär",9.719146,52.367433,""
"980461","Hannover Glocksee",9.719101,52.374373,""
"950461","Hannover Glocksee",9.718975,52.373797,""
"980241","Hannover An der Strangriede",9.718697,52.391992,""
"990241","Hannover An der Strangriede",9.718679,52.391875,""
"990255","Hannover Bahnhof Nordstadt",9.718553,52.393888,""
"970461","Hannover Glocksee",9.718544,52.373735,""
"960461","Hannover Glocksee/Betriebshof",9.718409,52.374553,""
"990461","Hannover Glocksee/Betriebshof",9.718391,52.374436,""
"900255","Hannover Bahnhof Nordstadt",9.718301,52.394014,""
"900861","Hannover Göttinger Straße",9.718265,52.354812,""
"900171","Hannover Leibniz Universität",9.718211,52.380998,""
"990271","Hannover Fenskestraße",9.717968,52.395866,""
"980271","Hannover Fenskestraße",9.717843,52.396244,""
"904043","Hannover Industrieweg",9.717402,52.421836,""
"900271","Hannover Fenskestraße",9.717285,52.39636,""
"994043","Hannover Industrieweg",9.717267,52.421737,""
"900851","Hannover Gronostraße",9.717204,52.345338,""
"970271","Hannover Fenskestraße",9.71707,52.396612,""
"904075","Hannover Pappelweg",9.717061,52.425512,""
"994075","Hannover Pappelweg",9.716908,52.425153,""
"990346","Hannover Charlottenstraße",9.716773,52.362129,""
"910346","Hannover Charlottenstraße",9.71671,52.362237,""
"900605","Hannover Deisterplatz/Allerweg",9.716476,52.363019,""
"906221","Langenhagen(Han) Evershorster Straße",9.716117,52.458611,""
"990571","Hannover Lindener Marktplatz",9.715424,52.366759,""
"996221","Langenhagen(Han) Evershorster Straße",9.715398,52.458772,""
"980469","Hannover Am Küchengarten",9.715227,52.370975,""
"980571","Hannover Lindener Marktplatz",9.714696,52.367262,""
"970469","Hannover Am Küchengarten",9.714606,52.371029,""
"970571","Hannover Lindener Marktplatz",9.71458,52.367083,""
"900571","Hannover Lindener Marktplatz",9.714139,52.366552,""
"994156","Godshorn Lessingstraße",9.713977,52.437153,""
"980261","Hannover Haltenhoffstraße",9.713824,52.393088,""
"990601","Hannover Deisterplatz/Bornumer Straße",9.713645,52.361033,""
"904156","Godshorn Lessingstraße",9.713591,52.437288,""
"900261","Hannover Haltenhoffstraße",9.713393,52.393052,""
"990261","Hannover Haltenhoffstraße",9.713375,52.392774,""
"900469","Hannover Am Küchengarten",9.713204,52.371433,""
"960469","Hannover Am Küchengarten",9.713096,52.371119,""
"990469","Hannover Am Küchengarten",9.712827,52.37164,""
"970291","Hannover Hainhölzer Markt",9.712728,52.401691,""
"980291","Hannover Hainhölzer Markt",9.712719,52.401295,""
"904031","Hannover Eibenweg",9.712314,52.414249,""
"900181","Hannover Schneiderberg/Wilhelm-Busch-Museum",9.712269,52.385043,""
"994031","Hannover Eibenweg",9.712152,52.414285,""
"904152","Godshorn Europaallee",9.711604,52.442439,""
"994152","Godshorn Europaallee",9.711415,52.442331,""
"900611","Hannover Sportlederweg",9.709644,52.361392,""
"990611","Hannover Sportlederweg",9.70942,52.361177,""
"904001","Hannover Krepenstraße",9.709186,52.408145,""
"904166","Godshorn Zeisigstraße",9.709177,52.43603,""
"994001","Hannover Krepenstraße",9.709033,52.408478,""
"900623","Hannover Nieschlagstraße",9.70897,52.367145,""
"900591","Hannover An der Martinskirche",9.708961,52.365617,""
"990213","Hannover Mohrmannstraße",9.708934,52.39147,""
"990623","Hannover Nieschlagstraße",9.708925,52.367181,""
"910213","Hannover Mohrmannstraße",9.708458,52.391452,""
"904139","Godshorn Münchner Straße-Ost",9.708332,52.448426,""
"990591","Hannover An der Martinskirche",9.708287,52.365132,""
"994139","Godshorn Münchner Straße-Ost",9.70817,52.448327,""
"906231","Langenhagen(Han) Wetteramt Hannover",9.708107,52.458431,""
"990593","Hannover Zur Sternwarte",9.708098,52.363388,""
"994166","Godshorn Zeisigstraße",9.708071,52.436012,""
"904471","Hannover Goetheschule",9.707793,52.394473,""
"994131","Godshorn Am Schapdamm",9.707415,52.433441,""
"900593","Hannover Zur Sternwarte",9.707316,52.363765,""
"904131","Godshorn Am Schapdamm",9.707083,52.433621,""
"994121","Hannover Bahnhof Vinnhorst",9.707002,52.424209,""
"900481","Hannover Leinaustraße",9.706858,52.373645,""
"970481","Hannover Leinaustraße",9.706831,52.373726,""
"904027","Hannover Mogelkenstraße",9.706606,52.410249,""
"910033","Hannover Kötnerholzweg",9.706552,52.369986,""
"900191","Hannover Appelstraße",9.706426,52.389933,""
"994027","Hannover Mogelkenstraße",9.706381,52.41024,""
"904021","Hannover Friedenauer Straße",9.706318,52.411543,""
"994154","Godshorn Schmiedeweg",9.706247,52.438691,""
"994021","Hannover Friedenauer Straße",9.706211,52.412451,""
"980191","Hannover Appelstraße",9.706184,52.390266,""
"990033","Hannover Kötnerholzweg",9.706112,52.370022,""
"904121","Hannover Bahnhof Vinnhorst",9.706076,52.423975,""
"974021","Hannover Friedenauer Straße",9.706058,52.411957,""
"904154","Godshorn Schmiedeweg",9.706058,52.438753,""
"984021","Hannover Friedenauer Straße",9.70604,52.412496,""
"904141","Godshorn Le-Trait-Platz",9.705581,52.437998,""
"994141","Godshorn Le-Trait-Platz",9.705563,52.438277,""
"904150","Godshorn Bayernstraße-Ost",9.704494,52.443023,""
"994150","Godshorn Bayernstraße-Ost",9.704305,52.443095,""
"900627","Hannover Bardowicker Straße",9.703136,52.368754,""
"990627","Hannover Bardowicker Straße",9.702974,52.368781,""
"904116","Hannover Beneckeallee",9.702543,52.414339,""
"994116","Hannover Beneckeallee",9.702363,52.414599,""
"994118","Hannover Dörpefeld",9.701761,52.422447,""
"900501","Hannover Ungerstraße",9.701743,52.375137,""
"904461","Hannover Burgweg",9.701527,52.39583,""
"990501","Hannover Ungerstraße",9.701284,52.375353,""
"904118","Hannover Dörpefeld",9.701195,52.422411,""
"904171","Godshorn Am Acker",9.701186,52.439158,""
"900631","Hannover Bernhard-Caspar-Straße",9.700925,52.366426,""
"994029","Hannover Bogenstraße",9.700601,52.409889,""
"900201","Hannover Herrenhäuser Gärten",9.700457,52.391353,""
"904029","Hannover Bogenstraße",9.700368,52.409925,""
"994137","Godshorn Münchner Straße-Mitte",9.700233,52.448543,""
"990631","Hannover Bernhard-Caspar-Straße",9.699729,52.366157,""
"970201","Hannover Herrenhäuser Gärten",9.699684,52.391551,""
"904111","Langenhagen(Han) Flughafen",9.699271,52.459231,""
"990201","Hannover Herrenhäuser Gärten",9.699253,52.391722,""
"994171","Godshorn Am Acker",9.699181,52.439113,""
"904137","Godshorn Münchner Straße-Mitte",9.699028,52.448696,""
"994164","Godshorn Bayernstraße-West",9.696727,52.443787,""
"904164","Godshorn Bayernstraße-West",9.6967,52.443698,""
"994135","Godshorn Münchner Straße-West",9.695999,52.448732,""
"984091","Hannover Mecklenheidestraße",9.695882,52.420029,""
"980485","Hannover Wunstorfer Straße",9.695253,52.375451,""
"900485","Hannover Wunstorfer Straße",9.695172,52.375038,""
"970485","Hannover Wunstorfer Straße",9.695154,52.375317,""
"904409","Hannover Am Fuhrenkampe",9.695001,52.408918,""
"990485","Hannover Wunstorfer Straße",9.694911,52.375272,""
"994311","Hannover Schaumburgstraße",9.694902,52.39227,""
"900781","Hannover Am Großmarkt",9.694794,52.352942,""
"994409","Hannover Am Fuhrenkampe",9.694444,52.409125,""
"904191","Godshorn Berliner Allee",9.694408,52.433684,""
"994091","Hannover Mecklenheidestraße",9.694363,52.419508,""
"994421","Hannover Gretelriede",9.694336,52.406006,""
"904311","Hannover Schaumburgstraße",9.694327,52.392135,""
"994191","Godshorn Berliner Allee",9.6943,52.433585,""
"904135","Godshorn Münchner Straße-West",9.694228,52.448696,""
"904091","Hannover Mecklenheidestraße",9.694111,52.419723,""
"974311","Hannover Schaumburgstraße",9.694075,52.392225,""
"994181","Godshorn Friedhof",9.693958,52.439428,""
"904441","Hannover Altenauer Weg",9.693949,52.400792,""
"994451","Hannover Culemeyertrift",9.693895,52.39663,""
"974091","Hannover Mecklenheidestraße",9.693769,52.420011,""
"904421","Hannover Gretelriede",9.693769,52.406222,""
"990781","Hannover Am Großmarkt",9.693751,52.352844,""
"994441","Hannover Altenauer Weg",9.693707,52.400235,""
"900641","Hannover Am Lindener Hafen",9.693572,52.365267,""
"904181","Godshorn Friedhof",9.693428,52.4395,""
"910219","Hannover Wendlandstraße",9.693365,52.393798,""
"990641","Hannover Am Lindener Hafen",9.693311,52.364979,""
"994315","Hannover Wendlandstraße",9.693248,52.393691,""
"990651","Hannover Bauweg",9.693032,52.360898,""
"991021","Hannover Canarisweg",9.692574,52.343935,""
"904451","Hannover Culemeyertrift",9.692448,52.396999,""
"900651","Hannover Bauweg",9.69243,52.360916,""
"901021","Hannover Canarisweg",9.692367,52.3446,""
"984451","Hannover Culemeyertrift",9.692358,52.39681,""
"980641","Hannover Am Lindener Hafen",9.692232,52.365006,""
"994413","Hannover Innersteweg",9.692142,52.408235,""
"904413","Hannover Innersteweg",9.692106,52.407768,""
"994143","Godshorn Schwabenstraße",9.691459,52.443599,""
"904143","Godshorn Schwabenstraße",9.691297,52.443482,""
"994411","Hannover Bahnhof Ledeburg",9.690803,52.40997,""
"904411","Hannover Bahnhof Ledeburg",9.690246,52.409988,""
"904101","Hannover Nordhafen",9.690093,52.42224,""
"974101","Hannover Nordhafen",9.689922,52.422546,""
"990771","Hannover Nenndorfer Chaussee",9.689859,52.349724,""
"900521","Hannover Harenberger Straße",9.689769,52.377034,""
"990521","Hannover Harenberger Straße",9.689643,52.377096,""
"900771","Hannover Nenndorfer Chaussee",9.689275,52.349122,""
"980771","Hannover Nenndorfer Chaussee",9.688403,52.349527,""
"990751","Hannover Beckstraße",9.688322,52.345841,""
"900751","Hannover Beckstraße",9.688133,52.34594,""
"994201","Godshorn Magdeburger Straße",9.688097,52.433639,""
"904146","Godshorn Frankenring-Ost",9.688016,52.44368,""
"904201","Godshorn Magdeburger Straße",9.688007,52.433675,""
"906880","Brelingen Starkampstraße",9.686192,52.553959,""
"906884","Brelingen Krugstraße",9.683585,52.555299,""
"906898","Brelingen Schule",9.682848,52.553177,""
"906834","Brelingen Kirche",9.680214,52.554319,""
"908378","Wiechendorf Schnippheide",9.664105,52.513849,""
"908340","Ibsingen",9.660941,52.579947,""
"908310","Resse(Wedemark) Lönswinkel",9.646603,52.507952,""
"908338","Rodenbostel",9.641515,52.578859,""
"908314","Negenborn(Wedemark) Im Mekhof",9.638279,52.551433,""
"908346","Dudenbostel",9.637119,52.573942,""
"908328","Negenborn(Wedemark) An der Bürgerwiese",9.634647,52.555011,""
"908300","Resse(Wedemark) Rhodopark",9.633704,52.491439,""
"908326","Negenborn(Wedemark) Kapelle",9.632508,52.553986,""
"908391","Negenborn(Wedemark) Hummelweg",9.631942,52.556728,""
"908425","Resse(Wedemark) Forststraße",9.63116,52.510245,""
"908304","Resse(Wedemark) Köhlerweg",9.630935,52.497696,""
"908302","Resse(Wedemark) Köhlerweg/L 380",9.630917,52.498604,""
"908376","Negenborn(Wedemark) Hühnerberg",9.630539,52.542876,""
"908324","Negenborn(Wedemark) Friedhof",9.629425,52.549429,""
"908306","Resse(Wedemark) Leipziger Straße",9.627717,52.501498,""
"908308","Resse(Wedemark) Osterbergstraße",9.627438,52.504429,""
"908322","Negenborn(Wedemark) Waldesruh",9.625407,52.543712,""
"908316","Negenborn(Wedemark) Im Walde",9.622485,52.521535,""
"908318","Negenborn(Wedemark) An der Düpe",9.61924,52.525724,""
"908330","Wedemark Abbensen Kapelle",9.612354,52.568854,""
"908276","Vesbeck Nord",9.608875,52.60464,""
"908336","Wedemark Abbensen Paul-Lincke-Weg",9.606367,52.572082,""
"908274","Vesbeck Süd",9.60599,52.602052,""
"908278","Warmeloh",9.601504,52.624974,""
"908334","Wedemark Abbensen CVJM-Heim",9.600291,52.575417,""
"908332","Wedemark Abbensen An der Windmühle",9.599661,52.572055,""
"908244","Helstorf Nord",9.594421,52.592829,""
"908248","Helstorf Oltrogge",9.593585,52.579057,""
"908062","Helstorf Grundschule",9.589198,52.581502,""
"908242","Helstorf Walsroder Straße",9.587274,52.586941,""
"908240","Helstorf Friedhof",9.585252,52.582086,""
"908246","Helstorf Wienhöfer",9.58438,52.586995,""
"908262","Brase Mitte",9.579373,52.62457,""
"908380","Luttmersen Kaserne",9.574599,52.577457,""
"908405","Scharrel(Neustadt a Rbge) Im Kleinen Moore",9.570743,52.527108,""
"908258","Mandelsloh Mühlenweg",9.569808,52.608695,""
"908256","Mandelsloh Küster",9.569026,52.604964,""
"908252","Mandelsloh Gasthof Wiebe",9.568622,52.596955,""
"908254","Mandelsloh Friedhof",9.565574,52.600002,""
"908384","Luttmersen Dorf",9.564612,52.57396,""
"908273","Mandelsloh Turnhalle",9.562653,52.602339,""
"908366","Scharrel(Neustadt a Rbge) Mitte",9.562491,52.528439,""
"908250","Amedorf",9.559489,52.594716,""
"908401","Scharrel(Neustadt a Rbge) Denkmal",9.558194,52.527891,""
"908364","Scharrel(Neustadt a Rbge) Siedlung",9.555075,52.525859,""
"908388","Metel Auf dem Borngrund",9.553052,52.540754,""
"908403","Scharrel(Neustadt a Rbge) Alte Mühle",9.552297,52.521391,""
"908368","Metel Mitte",9.549618,52.547577,""
"908370","Metel Campingplatz",9.542598,52.551964,""
"908393","Neustadt-Averhoy Kreuzung",9.541906,52.560854,""
"908350","Otternhagen Süd",9.538409,52.494145,""
"908235","Welze",9.537654,52.587687,""
"908372","Neustadt-Averhoy Mitte",9.536602,52.561384,""
"908348","Otternhagen Kranichstraße",9.534184,52.499485,""
"908395","Otternhagen An der Waldbühne",9.531703,52.513301,""
"908233","Evensen Siedlung",9.530723,52.583156,""
"908352","Otternhagen Am Berggarten",9.529519,52.498478,""
"908358","Otternhagen Volksbank",9.526777,52.51287,""
"908356","Otternhagen Schule",9.526184,52.511009,""
"908397","Otternhagen An der Wätering",9.525779,52.514083,""
"908354","Otternhagen Finke",9.525464,52.505265,""
"908360","Otternhagen Poppe",9.524997,52.51882,""
"908362","Otternhagen Auterkamp",9.524494,52.527468,""
"908383","Otternhagen Nord",9.524431,52.529868,""
"908231","Evensen Post",9.523469,52.578536,""
"908390","Scharnhorst(Neustadt a Rbge)",9.520808,52.539909,""
"908413","Wulfelade Waldbad",9.512385,52.575524,""
"908374","Basse Auf dem Moorlande",9.509697,52.554283,""
"908386","Basse Friedhof",9.506371,52.547829,""
"908208","Basse Kirchstraße",9.505841,52.552027,""
"908226","Wulfelade Mitte",9.50265,52.572324,""
"908228","Büren(Neustadt) Denkmal",9.501949,52.590815,""
"908415","Wulfelade Fillerfuhren",9.500286,52.574203,""
"908044","Neustadt a Rbge Mecklenhorst",9.500151,52.505337,""
"908224","Wulfelade Süd",9.498623,52.570985,""
"998024","Bordenau Dammkrug",9.492888,52.486837,""
"908024","Bordenau Dammkrug",9.492735,52.487394,""
"908218","Mariensee Kloster",9.487638,52.558759,""
"908222","Mariensee Nord",9.487188,52.564063,""
"908204","Suttorf(Leine) Im Eschfeld",9.485957,52.532664,""
"908284","Mariensee Waldhaus",9.485903,52.555622,""
"908042","Neustadt a Rbge Zum Heinenwinkel",9.485723,52.50299,""
"908220","Mariensee Wittingsbach",9.485247,52.564459,""
"908196","Bevensen Mitte",9.484806,52.617522,""
"908421","Suttorf(Leine) Am Graseweg",9.48299,52.524996,""
"908411","Mariensee Bergstraße",9.482451,52.561807,""
"908202","Suttorf(Leine) Mitte",9.482442,52.529437,""
"908194","Bevensen Trafo",9.480725,52.611949,""
"908084","Neustadt a Rbge Boschstraße",9.479952,52.504698,""
"908200","Suttorf(Leine) Siedlung",9.478019,52.524888,""
"908060","Neustadt a Rbge Gewerbegebiet Ost",9.477219,52.503665,""
"908086","Neustadt a Rbge Rudolf-Diesel-Ring",9.476213,52.510721,""
"908216","Bevensen Baumühle",9.473714,52.607796,""
"908034","Neustadt a Rbge Mecklenhorster Straße",9.46868,52.504519,""
"908118","Empede Mitte",9.466504,52.536475,""
"908041","Neustadt a Rbge Krankenhaus/Röntgenstraße",9.466504,52.495116,""
"908038","Neustadt a Rbge Sauerbruchweg",9.465417,52.498145,""
"908012","Neustadt a Rbge Krankenhaus",9.464428,52.493057,""
"908088","Neustadt a Rbge Leinstraße/KGS",9.464374,52.517715,""
"908056","Neustadt a Rbge Großer Weg",9.463897,52.511099,""
"908471","Empede Klärwerk",9.463124,52.528825,""
"908030","Neustadt a Rbge Leinstraße",9.462171,52.505669,""
"908010","Neustadt a Rbge Nicolaistift",9.461542,52.49881,""
"908212","Empede Weinbergstraße",9.461488,52.535019,""
"908026","Neustadt a Rbge Theodor-Heuss-Straße",9.461488,52.507656,""
"908028","Neustadt a Rbge Herzog-Erich-Allee",9.461003,52.503458,""
"908094","Neustadt a Rbge Bunsenstraße",9.460607,52.49446,""
"908453","Neustadt a Rbge Heinrich-Heine-Straße",9.460167,52.514254,""
"908008","Neustadt a Rbge Lindenstraße",9.459834,52.501615,""
"908090","Neustadt a Rbge Großer Weg/KGS",9.45943,52.516951,""
"908013","Neustadt a Rbge Stockhausenstraße",9.458872,52.501166,""
"908052","Neustadt a Rbge VHS-Weiterbildungszentrum",9.458198,52.508923,""
"908054","Neustadt a Rbge Goethestraße",9.457776,52.511027,""
"908018","Neustadt a Rbge Hudeweg",9.456616,52.48592,""
"908000","Neustadt a Rbge ZOB",9.456059,52.504231,""
"908050","Neustadt a Rbge Fontanestraße",9.455996,52.51349,""
"908058","Neustadt a Rbge Stadtverwaltung",9.452993,52.510982,""
"908068","Neustadt a Rbge Königsberger Straße",9.450387,52.509939,""
"908455","Neustadt a Rbge Wölper Ring",9.449488,52.512645,""
"908192","Dudensen Kuhlackerweg",9.448966,52.595903,""
"908128","Empede Himmelreich (Schranke)",9.448724,52.530273,""
"908132","Empede Himmelreich (Mitte)",9.4476,52.526776,""
"908070","Neustadt a Rbge Kornstraße",9.447204,52.499395,""
"908290","Dudensen Süd",9.447168,52.591822,""
"908092","Neustadt a Rbge Über der Linde",9.446449,52.50228,""
"908445","Neustadt a Rbge Von-Reiche-Straße",9.445694,52.509966,""
"908447","Neustadt a Rbge Ahnsförth",9.445353,52.504599,""
"908066","Neustadt a Rbge Breslauer Straße",9.445272,52.506047,""
"908072","Neustadt a Rbge Im Heidland",9.44333,52.499269,""
"908074","Neustadt a Rbge Wacholderweg",9.442881,52.502963,""
"908441","Neustadt a Rbge Am Kuhlager",9.442287,52.505831,""
"908443","Neustadt a Rbge Im Eichenbleek",9.441137,52.509454,""
"908190","Dudensen West",9.440732,52.597485,""
"908076","Neustadt a Rbge Landwehr/F.Kuhlmann",9.438638,52.50442,""
"908078","Neustadt a Rbge Im kühlen Grunde",9.433676,52.50424,""
"908451","Neustadt a Rbge Sophienring",9.433478,52.502011,""
"908450","Neustadt a Rbge Parkwiesen",9.433406,52.499494,""
"908178","Hagen(Neustadt a Rbge) Abzw. Dudensen",9.432444,52.575515,""
"908080","Neustadt a Rbge Dyckerhoffstraße",9.430637,52.502154,""
"908214","Hagen(Neustadt a Rbge) Hagener Berg",9.430592,52.57041,""
"908134","Eilvese Schrader",9.428588,52.545536,""
"908082","Neustadt a Rbge Ernst-Strobach-Platz",9.42812,52.50371,""
"908417","Hagen(Neustadt a Rbge) Hagener Berg (Süd)",9.427761,52.55653,""
"908140","Eilvese Bahnhof",9.427257,52.545725,""
"908177","Hagen(Neustadt a Rbge) Schule",9.426745,52.576297,""
"908180","Hagen(Han) Zur Kirche",9.42652,52.575722,""
"908206","Hagen(Neustadt a Rbge) An den Eichen",9.418268,52.576378,""
"908985","Neustadt a Rbge Moorstraße",9.417306,52.50468,""
"908198","Eilvese Mitte",9.414142,52.546399,""
"908292","Hagen(Neustadt a Rbge) Zum Bahnhof",9.4106,52.575165,""
"908136","Eilvese Hestergarten",9.408722,52.551128,""
"908431","Eilvese Riehestraße",9.407562,52.548772,""
"908138","Eilvese Am Weißen Sande",9.405683,52.544934,""
"908182","Hagen(Neustadt a Rbge) Alter Bahnhof",9.404326,52.577682,""
"908114","Eilvese Schuster",9.402456,52.541455,""
"908142","Eilvese Aschenkrug (L 360)",9.40011,52.536718,""
"908521","Nöpke An der Spitzburg",9.399993,52.59806,""
"908064","Nöpke Papendiek",9.398141,52.595301,""
"908297","Borstel(Neustadt a Rbge) Friedhof",9.396784,52.583884,""
"908188","Nöpke Seelenfeld",9.395552,52.598537,""
"908186","Nöpke Roter Weg",9.389988,52.596155,""
"908399","Borstel(Neustadt a Rbge) Im Bruche",9.3897,52.590348,""
"908210","Borstel(Neustadt a Rbge)",9.389242,52.587147,""
"908144","Schneeren Wasserwerk",9.384765,52.537284,""
"905736","Lenthe Sportplatz",9.615473,52.34878,""
"904774","Garbsen Auf der Horst/Friedhof",9.615437,52.418141,""
"904902","Berenbostel Wilhelm-Reime-Straße",9.615411,52.440309,""
"994681","Havelse Im Tiefen Lande",9.615204,52.405736,""
"994774","Garbsen Auf der Horst/Friedhof",9.615132,52.418096,""
"904932","Stelingen Zehntweg",9.614835,52.447392,""
"994932","Stelingen Zehntweg",9.614772,52.447158,""
"904681","Havelse Im Tiefen Lande",9.614709,52.405583,""
"904810","Garbsen Auf der Horst/Friedhof",9.6147,52.418024,""
"994810","Garbsen Auf der Horst/Friedhof",9.614682,52.41789,""
"905735","Lenthe Pagenburgweg",9.614242,52.35457,""
"904708","Garbsen-Auf der Horst Herkuleshof",9.613765,52.419562,""
"994708","Garbsen-Auf der Horst Herkuleshof",9.613712,52.419687,""
"905734","Lenthe Kirche",9.613109,52.357131,""
"904673","Berenbostel Dorfplatz",9.612858,52.437513,""
"994673","Berenbostel Dorfplatz",9.612264,52.437243,""
"904894","Osterwald-Oberende(Garbsen) Stauriede",9.61212,52.468427,""
"994894","Osterwald-Oberende(Garbsen) Stauriede",9.612102,52.468184,""
"994904","Berenbostel Melanchthonstraße",9.611644,52.435733,""
"904950","Berenbostel Am Hechtkamp",9.611527,52.446943,""
"904904","Berenbostel Melanchthonstraße",9.611509,52.435733,""
"994900","Berenbostel Auf dem Kronsberg",9.6115,52.440443,""
"994906","Berenbostel Weberstraße",9.611338,52.432794,""
"904930","Berenbostel Neuer Landweg",9.611338,52.442619,""
"994679","Garbsen-Mitte Osteriede",9.611257,52.429602,""
"904906","Berenbostel Weberstraße",9.611204,52.432695,""
"904775","Garbsen-Auf der Horst Skorpiongasse",9.611195,52.416218,""
"994950","Berenbostel Am Hechtkamp",9.611177,52.446871,""
"910284","Garbsen-Mitte Osteriede",9.611132,52.429558,""
"904900","Berenbostel Auf dem Kronsberg",9.610925,52.440165,""
"994671","Havelse Rehkamp",9.610646,52.405511,""
"994930","Berenbostel Neuer Landweg",9.610475,52.442772,""
"974775","Garbsen-Auf der Horst Skorpiongasse",9.610395,52.415786,""
"994762","Havelse Am Hasenberge",9.610332,52.410554,""
"904762","Havelse Am Hasenberge",9.610305,52.410725,""
"994775","Garbsen-Auf der Horst Skorpiongasse",9.610134,52.415876,""
"904671","Havelse Rehkamp",9.610062,52.40543,""
"905730","Northen Benther-Berg-Weg",9.610026,52.344681,""
"904710","Garbsen-Auf der Horst Talkamp",9.609612,52.419948,""
"994704","Havelse An der Feuerwache",9.60955,52.409053,""
"904998","Berenbostel Katholische Kirche",9.609307,52.439266,""
"994998","Berenbostel Katholische Kirche",9.609199,52.438978,""
"994896","Osterwald-Oberende(Garbsen) Klosterweg",9.609172,52.4644,""
"904704","Havelse An der Feuerwache",9.609118,52.408469,""
"974926","Berenbostel Kästnerstraße",9.609028,52.443428,""
"984926","Berenbostel Kästnerstraße",9.608947,52.443311,""
"984775","Garbsen-Auf der Horst Skorpiongasse",9.608723,52.41611,""
"904822","Altgarbsen Sperrtor",9.608723,52.413961,""
"904896","Osterwald-Oberende(Garbsen) Klosterweg",9.608516,52.464148,""
"994710","Garbsen-Auf der Horst Talkamp",9.608354,52.419948,""
"904926","Berenbostel Kästnerstraße",9.608354,52.443832,""
"904914","Berenbostel Carl-Zeiss-Straße",9.6083,52.449379,""
"994926","Berenbostel Kästnerstraße",9.608264,52.443787,""
"904916","Berenbostel Böckeriethe",9.608111,52.439697,""
"904621","Seelze Bredenbeeke",9.608075,52.39263,""
"994988","Berenbostel Im Rehwinkel",9.607949,52.446277,""
"904795","Garbsen-Mitte Walter-Koch-Straße",9.607896,52.424254,""
"904988","Berenbostel Im Rehwinkel",9.607815,52.446277,""
"994916","Berenbostel Böckeriethe",9.607788,52.439769,""
"904768","Garbsen-Auf der Horst Schulzentrum I",9.607653,52.416334,""
"994683","Garbsen-Mitte Graf-Stauffenberg-Straße",9.606817,52.426996,""
"994764","Berenbostel Blumenstraße",9.606691,52.43798,""
"904764","Berenbostel Blumenstraße",9.606556,52.438061,""
"904683","Garbsen-Mitte Graf-Stauffenberg-Straße",9.606502,52.427005,""
"994924","Berenbostel Theodor-Storm-Straße",9.604902,52.44101,""
"994661","Havelse Sportplatz",9.604399,52.408649,""
"905718","Northen Brennereiweg",9.604075,52.347369,""
"904793","Garbsen-Mitte Märchenstraße",9.604021,52.426034,""
"994793","Garbsen-Mitte Märchenstraße",9.603886,52.425971,""
"974793","Garbsen-Mitte Märchenstraße",9.603841,52.426393,""
"904784","Osterwald-Oberende(Garbsen) Wedderlingsweg",9.603832,52.459258,""
"984793","Garbsen-Mitte Märchenstraße",9.603716,52.42633,""
"994928","Berenbostel Im Hespe",9.603644,52.444381,""
"904712","Garbsen-Auf der Horst Sperberhorst",9.603608,52.419562,""
"904924","Berenbostel Theodor-Storm-Straße",9.603554,52.441226,""
"904777","Garbsen-Auf der Horst Marshof",9.60341,52.416622,""
"904661","Havelse Sportplatz",9.60341,52.408837,""
"904928","Berenbostel Im Hespe",9.603293,52.44448,""
"905610","Harenberg Mühle",9.603221,52.375712,""
"994777","Garbsen-Auf der Horst Marshof",9.603113,52.416757,""
"994712","Garbsen-Auf der Horst Sperberhorst",9.603041,52.419633,""
"904675","Berenbostel Nelkenstraße",9.602466,52.437962,""
"994675","Berenbostel Nelkenstraße",9.601711,52.437891,""
"994892","Osterwald-Oberende(Garbsen) Asselweg",9.601324,52.462809,""
"904892","Osterwald-Oberende(Garbsen) Asselweg",9.601261,52.462908,""
"904820","Altgarbsen Mühlenbergsweg",9.600947,52.413656,""
"904800","Berenbostel Stadtpark",9.600749,52.434897,""
"904632","Seelze Obentrautdenkmal",9.599347,52.394527,""
"904797","Garbsen-Mitte Hänselriede",9.599239,52.426456,""
"904625","Seelze Kristall-Therme",9.59923,52.398095,""
"904714","Garbsen-Auf der Horst Saturnring",9.599185,52.420263,""
"994797","Garbsen-Mitte Hänselriede",9.59896,52.426402,""
"994714","Garbsen-Auf der Horst Saturnring",9.598834,52.420469,""
"904634","Seelze Grundschule",9.598709,52.395318,""
"904637","Seelze Beethovenstraße",9.598493,52.393502,""
"904736","Seelze Humboldtstraße",9.59807,52.396819,""
"904922","Berenbostel Birkenweg",9.597953,52.437891,""
"994922","Berenbostel Birkenweg",9.597783,52.437783,""
"994802","Berenbostel Kahlriethe/FBZ",9.597459,52.434933,""
"904802","Berenbostel Kahlriethe/FBZ",9.597126,52.434807,""
"904655","Seelze Am Markt",9.596875,52.387919,""
"904659","Seelze Martenkamp",9.596677,52.386904,""
"994779","Garbsen",9.596605,52.417584,""
"904779","Garbsen",9.596569,52.417476,""
"994715","Garbsen-Auf der Horst Uranushof",9.59656,52.420955,""
"904994","Berenbostel Schulzentrum III",9.596039,52.440291,""
"904715","Garbsen-Auf der Horst Uranushof",9.595751,52.420919,""
"904804","Garbsen-Mitte Kastendamm",9.595697,52.430295,""
"994804","Garbsen-Mitte Kastendamm",9.59549,52.43069,""
"994706","Garbsen-Mitte Rathaus",9.595472,52.426285,""
"904740","Seelze Bahnhof",9.595463,52.391983,""
"904706","Garbsen-Mitte Rathaus",9.595401,52.426591,""
"904818","Altgarbsen Vulmahnstraße",9.595095,52.41495,""
"994816","Altgarbsen Am Kanal",9.594178,52.411381,""
"904641","Seelze Alter Krug",9.593576,52.39574,""
"994890","Osterwald-Oberende(Garbsen) Neue Straße",9.593405,52.461883,""
"904657","Garbsen-Auf der Horst Gehrbreite",9.59327,52.420955,""
"904816","Altgarbsen Am Kanal",9.592964,52.41166,""
"904791","Garbsen-Mitte Schulzentrum II",9.592946,52.427993,""
"905543","Döteberg Kirchbuschweg",9.592506,52.373887,""
"994791","Garbsen-Mitte Schulzentrum II",9.592407,52.428083,""
"904890","Osterwald-Oberende(Garbsen) Neue Straße",9.5922,52.461784,""
"994657","Garbsen-Auf der Horst Gehrbreite",9.591904,52.421009,""
"905612","Döteberg",9.590843,52.373986,""
"904808","Altgarbsen Berenbosteler Straße",9.590807,52.419705,""
"994808","Altgarbsen Berenbosteler Straße",9.590259,52.419445,""
"904635","Seelze An den Grachten",9.590259,52.388432,""
"994812","Altgarbsen Konrad-Adenauer-Straße",9.58936,52.415319,""
"994852","Meyenfeld Erlenweg",9.589225,52.438394,""
"904806","Altgarbsen Pottbergsweg",9.588874,52.418699,""
"904852","Meyenfeld Erlenweg",9.588811,52.438394,""
"994806","Altgarbsen Pottbergsweg",9.588802,52.418797,""
"904812","Altgarbsen Konrad-Adenauer-Straße",9.588766,52.41531,""
"994814","Altgarbsen Kastanienplatz",9.588182,52.414087,""
"904814","Altgarbsen Kastanienplatz",9.588002,52.414195,""
"904912","Osterwald-Oberende(Garbsen) Am Winkelberge",9.586016,52.461415,""
"994912","Osterwald-Oberende(Garbsen) Am Winkelberge",9.585683,52.4612,""
"904647","Seelze Am Kanal",9.585494,52.39209,""
"904627","Seelze Honeywell",9.585279,52.397286,""
"904734","Seelze Ulmenstraße",9.583957,52.397133,""
"994718","Altgarbsen Friedhof",9.58295,52.418564,""
"904718","Altgarbsen Friedhof",9.58287,52.41851,""
"908979","Seelze Lebenshilfe",9.581332,52.393025,""
"904643","Seelze Almhorster Straße",9.581144,52.388513,""
"994888","Osterwald-Oberende(Garbsen) Auterweg",9.580101,52.459635,""
"904888","Osterwald-Oberende(Garbsen) Auterweg",9.577979,52.458728,""
"905624","Kirchwehren Friedhof",9.577827,52.366444,""
"904826","Altgarbsen Hansastraße",9.577449,52.418654,""
"904854","Meyenfeld Im Bleeke",9.577341,52.440372,""
"994826","Altgarbsen Hansastraße",9.57726,52.41877,""
"904645","Seelze Almhorster Mühle",9.576343,52.383407,""
"994854","Meyenfeld Im Bleeke",9.576191,52.440147,""
"904880","Meyenfeld Vor dem Moore",9.574069,52.435868,""
"904850","Meyenfeld Meyenfelder Straße",9.573476,52.438637,""
"994663","Altgarbsen Gutenbergstraße",9.572874,52.419319,""
"904663","Altgarbsen Gutenbergstraße",9.572847,52.419229,""
"904651","Lohnde Krumme Masch",9.572676,52.397466,""
"994886","Osterwald-Unterende(Garbsen) Molkereistraße",9.572011,52.457487,""
"904886","Osterwald-Unterende(Garbsen) Molkereistraße",9.571741,52.45764,""
"904871","Meyenfeld Gustav-Adolf-Straße",9.571669,52.443401,""
"904665","Meyenfeld Molkereistraße/B 6",9.57068,52.447437,""
"904688","Meyenfeld Schützenstraße/B 6",9.57059,52.446358,""
"904752","Osterwald-Unterende(Garbsen) Jan-Körber-Weg",9.570015,52.455168,""
"904669","Osterwald-Unterende(Garbsen) Zum Klingen-Berg",9.569835,52.450511,""
"905618","Almhorst Hopfenbruch",9.569386,52.380243,""
"905622","Kirchwehren Mitte",9.568819,52.36604,""
"904843","Altgarbsen Kochslandweg",9.568352,52.417512,""
"904828","Altgarbsen Am Blauen See",9.566383,52.420128,""
"994828","Altgarbsen Am Blauen See",9.566114,52.420398,""
"904859","Meyenfeld Schützenstraße",9.56588,52.442709,""
"994856","Meyenfeld Leistlinger Straße",9.565493,52.440911,""
"904856","Meyenfeld Leistlinger Straße",9.565359,52.441037,""
"905620","Kirchwehren Denkmal",9.564585,52.367766,""
"905616","Almhorst Denkmal",9.564343,52.378939,""
"994884","Osterwald-Unterende(Garbsen) Im Schiereick",9.563147,52.459105,""
"904884","Osterwald-Unterende(Garbsen) Im Schiereick",9.562536,52.459348,""
"994898","Osterwald-Unterende(Garbsen) Annastraße",9.560423,52.459779,""
"904654","Lohnde Theodor-Heuss-Straße",9.559614,52.401772,""
"904720","Lohnde Lohnder Straße",9.55903,52.402392,""
"904898","Osterwald-Unterende(Garbsen) Annastraße",9.558805,52.46013,""
"904722","Lohnde Zentrum",9.558778,52.400684,""
"904860","Osterwald-Unterende(Garbsen) Denkmal",9.555938,52.461379,""
"904724","Lohnde Hafenstraße",9.554967,52.40152,""
"994860","Osterwald-Unterende(Garbsen) Denkmal",9.554895,52.461613,""
"994882","Osterwald-Unterende(Garbsen) Großer Weg",9.552648,52.461631,""
"904882","Osterwald-Unterende(Garbsen) Großer Weg",9.552153,52.46173,""
"905628","Lathwehren Dunauer Weg",9.551821,52.362813,""
"904862","Horst(Garbsen) Im Kornacker",9.549034,52.441073,""
"994862","Horst(Garbsen) Im Kornacker",9.548782,52.44092,""
"904866","Horst(Garbsen) Mühlenstraße",9.543488,52.441468,""
"994866","Horst(Garbsen) Mühlenstraße",9.542823,52.44145,""
"905626","Lathwehren Mitte",9.541312,52.361644,""
"904864","Horst(Garbsen) Schule",9.540476,52.440974,""
"994868","Horst(Garbsen) Kirche",9.536611,52.4419,""
"904868","Horst(Garbsen) Kirche",9.536575,52.441981,""
"994756","Frielingen(Garbsen) Schafbrink",9.535416,52.461316,""
"904756","Frielingen(Garbsen) Schafbrink",9.535299,52.461478,""
"904726","Gümmer Graseweg",9.534058,52.407498,""
"904876","Horst(Garbsen) Vor der Höhe",9.53137,52.444201,""
"904748","Gümmer Westfalenstraße",9.529141,52.409197,""
"994760","Frielingen(Garbsen) Arndtstraße",9.528665,52.461433,""
"904760","Frielingen(Garbsen) Arndtstraße",9.528197,52.461496,""
"994878","Frielingen(Garbsen) Brinkwiesen",9.52755,52.460633,""
"904878","Frielingen(Garbsen) Brinkwiesen",9.527478,52.460579,""
"904872","Frielingen(Garbsen) Denkmal",9.52577,52.455842,""
"984872","Frielingen(Garbsen) Denkmal",9.525581,52.455671,""
"994872","Frielingen(Garbsen) Denkmal",9.525473,52.455545,""
"904758","Frielingen(Garbsen) Mühlenweg",9.523172,52.461146,""
"994874","Frielingen(Garbsen) Bordenauer Straße",9.521887,52.458089,""
"904874","Frielingen(Garbsen) Bordenauer Straße",9.5215,52.458134,""
"904728","Gümmer Vorm Walde",9.51972,52.410626,""
"904649","Stemmen(Barsinghausen) Buchenbrinkstraße",9.518129,52.344565,""
"994830","Schloss Ricklingen Entenpool",9.517284,52.433297,""
"904746","Dedensen Forstamtsstraße",9.517221,52.40624,""
"904830","Schloss Ricklingen Entenpool",9.516961,52.433135,""
"904730","Dedensen Luther Straße",9.516934,52.401952,""
"904744","Dedensen Bruchstraße",9.51519,52.402275,""
"904733","Dedensen Uhlenbrauk",9.514956,52.397601,""
"904732","Dedensen Raiffeisenstraße",9.512232,52.401934,""
"904836","Schloss Ricklingen Große Rehre",9.508996,52.428209,""
"994836","Schloss Ricklingen Große Rehre",9.50852,52.428002,""
"905630","Ostermunzel Dedenser Straße",9.505095,52.367865,""
"904848","Schloss Ricklingen Voigtstraße",9.50505,52.430951,""
"904841","Schloss Ricklingen Lönsweg",9.501391,52.428047,""
"904847","Schloss Ricklingen Finkenweg",9.500978,52.432919,""
"905864","Barrigsen",9.499818,52.360359,""
"905632","Ostermunzel Barrigser Weg",9.499054,52.367415,""
"904845","Schloss Ricklingen Am Friedhof",9.498874,52.430295,""
"907166","Luthe Abzw. Schloss Ricklingen",9.495387,52.420119,""
"908461","Bordenau Forst",9.491521,52.475358,""
"998461","Bordenau Forst",9.491449,52.475456,""
"908463","Bordenau Lohkamp",9.490137,52.472796,""
"998463","Bordenau Lohkamp",9.49002,52.472715,""
"998122","Bordenau Frielinger Straße",9.488033,52.456381,""
"908122","Bordenau Frielinger Straße",9.48797,52.45648,""
"908126","Bordenau Birkenweg",9.487296,52.467312,""
"998126","Bordenau Birkenweg",9.487089,52.467249,""
"907302","Holtensen(Barsingh) Bultfeld",9.485651,52.386859,""
"908124","Bordenau Schule",9.484483,52.463779,""
"907180","Luthe Am Hüppefeld",9.483943,52.426663,""
"998124","Bordenau Schule",9.483934,52.463357,""
"907320","Groß Munzel Friedhof",9.483683,52.365626,""
"907164","Luthe Königsberger Straße",9.483242,52.423777,""
"998120","Bordenau Am Leineufer",9.482253,52.457847,""
"908120","Bordenau Am Leineufer",9.48184,52.458107,""
"907162","Luthe Dompfaffweg",9.479709,52.425306,""
"907324","Groß Munzel Spielburg",9.479278,52.36933,""
"907304","Groß Munzel Osterende",9.479071,52.365437,""
"907300","Holtensen(Barsingh) Abzweigung",9.478343,52.386212,""
"907113","Luthe Sperberhorst",9.478028,52.422618,""
"907158","Luthe Bünteweg",9.477552,52.428874,""
"908465","Bordenau Steinweg",9.477246,52.460633,""
"907160","Luthe Parkstraße",9.47641,52.426591,""
"907308","Groß Munzel Schule",9.475826,52.363837,""
"907152","Luthe Schule",9.474127,52.424631,""
"907156","Luthe Hauptstraße",9.473812,52.427957,""
"907306","Groß Munzel Auf dem Damm",9.473758,52.360161,""
"907150","Luthe Am Lehmstich",9.469587,52.426537,""
"907310","Landringhausen Am Deichfeld",9.467736,52.353275,""
"908116","Poggenhagen(Neustadt a Rbge) Am Fährhaus",9.467655,52.462934,""
"907182","Luthe Im Blenze",9.466226,52.426492,""
"907184","Wunstorf Eichriede",9.465084,52.413269,""
"907286","Wunstorf Lise-Meitner-Straße",9.46494,52.407983,""
"907146","Luthe Sommerstraße",9.464239,52.429396,""
"907318","Landringhausen Kirche",9.464113,52.355486,""
"907168","Luthe Lenzstraße",9.463295,52.426492,""
"908112","Poggenhagen(Neustadt a Rbge) Bahnhofstraße",9.45969,52.46804,""
"907066","Kolenfeld Neisser Straße",9.459457,52.393376,""
"907069","Kolenfeld Auf dem Kampe",9.458675,52.387955,""
"907428","Kolenfeld Bültenstraße",9.458045,52.384647,""
"907022","Kolenfeld Schwalenbergstraße",9.457803,52.388225,""
"907170","Blumenau(Wunstorf) Am Kalkofen",9.457695,52.434906,""
"907282","Wunstorf Albert-Einstein-Straße",9.456724,52.413746,""
"907018","Kolenfeld Loccumer Straße",9.456292,52.39272,""
"908021","Neustadt a Rbge Wunstorfer Str/Westkampw.",9.456023,52.482621,""
"908022","Neustadt a Rbge Moorkrug",9.455555,52.480059,""
"907178","Liethe(Wunstorf) Mitte",9.454962,52.44786,""
"908110","Poggenhagen(Neustadt a Rbge) Bahnhof",9.454827,52.46751,""
"907020","Kolenfeld Mühlenweg",9.45436,52.389565,""
"907284","Wunstorf Werner-v.-Siemens-Straße",9.454297,52.416334,""
"907420","Liethe(Wunstorf) Von-der-Bussche-Allee",9.454216,52.446763,""
"907138","Blumenau(Wunstorf) Manhorner Straße",9.453587,52.435517,""
"907174","Blumenau(Wunstorf) Brockmann",9.452706,52.43478,""
"907142","Wunstorf Hasselhorster Straße",9.45196,52.431967,""
"907415","Kolenfeld Kirchdamm",9.451753,52.387057,""
"907006","Wunstorf Bahnhof/Südseite",9.45098,52.421305,""
"907108","Wunstorf Potts Kamp",9.450971,52.418555,""
"908108","Poggenhagen(Neustadt a Rbge) Ilschenheide",9.450764,52.467312,""
"907136","Wunstorf Ecke Blum-/Saarstraße",9.450737,52.430717,""
"907130","Wunstorf Blumenauer Straße",9.45036,52.427966,""
"908100","Poggenhagen(Neustadt a Rbge) Klingemann",9.450279,52.480553,""
"907128","Wunstorf Bahnhofstraße",9.448804,52.424092,""
"907472","Wunstorf Industriestraße",9.448553,52.41673,""
"907132","Wunstorf Wilhelm-Busch-Straße",9.448409,52.428344,""
"907177","Blumenau(Wunstorf) Abzweigung",9.448337,52.438547,""
"907140","Wunstorf Saarstraße",9.447034,52.43042,""
"907421","Wunstorf An der Sorsumer Straße",9.445937,52.420631,""
"908102","Poggenhagen(Neustadt a Rbge) Fr.-Meyer-Straße",9.445398,52.475555,""
"907064","Wunstorf Bischof-Dietrich-Straße",9.445362,52.41673,""
"907134","Wunstorf Heinrichstraße",9.444885,52.42865,""
"907060","Wunstorf Adolph-Brosang-Straße",9.444795,52.422528,""
"907126","Wunstorf Plantagenweg",9.441559,52.417098,""
"908104","Poggenhagen(Neustadt a Rbge) Schlesier Straße",9.440031,52.470045,""
"907124","Wunstorf Deisterweg",9.439006,52.41593,""
"907010","Wunstorf Hölty-Gymnasium",9.437487,52.424065,""
"907014","Wunstorf Kolenfelder Straße",9.435788,52.420371,""
"907122","Wunstorf Hasenpfahl",9.434844,52.41717,""
"908106","Poggenhagen(Neustadt a Rbge) Fliegerhorst",9.43435,52.464202,""
"907012","Wunstorf Klinikum",9.432291,52.423661,""
"907062","Wunstorf Albrecht-Dürer-Straße",9.431464,52.416604,""
"907110","Wunstorf Tulpenstraße",9.43132,52.434996,""
"907008","Wunstorf Barneschulen",9.431266,52.413602,""
"907024","Wunstorf Sudetenstraße",9.430691,52.41904,""
"907112","Wunstorf IGS",9.430574,52.429755,""
"907026","Wunstorf Rathaus",9.429954,52.426115,""
"907442","Wunstorf An der Sandgrube",9.429523,52.436902,""
"907172","Wunstorf Neustädter Straße",9.42919,52.43265,""
"907120","Wunstorf Barnestraße",9.428075,52.421917,""
"907070","Wunstorf Alter Stadtbahnhof",9.42714,52.430438,""
"907188","Wunstorf Senator-Kraft-Straße",9.426152,52.433189,""
"907028","Wunstorf Nordrehr",9.425208,52.429441,""
"907072","Wunstorf Senator-Meier-Straße",9.425028,52.435077,""
"907118","Wunstorf Alter Markt",9.424722,52.423526,""
"907074","Klein Heidorn Frachtweg",9.421235,52.442718,""
"907186","Wunstorf Leyserstraße",9.420381,52.421404,""
"907076","Klein Heidorn Mitte",9.420336,52.448048,""
"907114","Wunstorf Hagenburger Straße",9.419958,52.429279,""
"907116","Wunstorf In den Ellern",9.419616,52.425674,""
"907078","Klein Heidorn Zum Winkel",9.41896,52.451482,""
"907413","Wunstorf Im Westerende",9.417288,52.421018,""
"907144","Wunstorf Am Hohen Holz",9.415904,52.428677,""
"907462","Waltringhausen Mühle",9.403094,52.345661,""
"907458","Riehe",9.401332,52.353689,""
"907080","Großenheidorn Bordenauer Weg",9.398869,52.455051,""
"907430","Großenheidorn Funkenburg",9.397863,52.46048,""
"907481","Großenheidorn Schaers Grasweg",9.394186,52.457757,""
"907086","Großenheidorn Waldstraße",9.393449,52.463555,""
"907084","Großenheidorn Strandstraße",9.389853,52.465173,""
"907082","Großenheidorn Mitte",9.389116,52.458053,""
"907450","Haste(b Wunstorf) Bahnhof",9.389098,52.379038,""
"907404","Bokeloh(Wunstorf) Zur Victorwiese",9.388172,52.419274,""
"907456","Kreuzriehe Gasthof Hattendorf",9.387552,52.355208,""
"907454","Helsinghausen Ort",9.384603,52.364512,""
"907052","Bokeloh(Wunstorf) Forststraße",9.384496,52.410393,""
"907030","Bokeloh(Wunstorf) Ebelingstraße",9.384433,52.418555,""
"907432","Großenheidorn Zum Meer",9.384307,52.457154,""
"907434","Großenheidorn Strand",9.383723,52.47116,""
"907032","Bokeloh(Wunstorf) Schule",9.383633,52.417961,""
"907446","Großenheidorn Grüne Straße",9.382176,52.460085,""
"907452","Haste(b Wunstorf) Abzw. Hohnhorst",9.38197,52.368907,""
"907491","Idensen Alte Gärtnerei",9.381286,52.405332,""
"907196","Bokeloh(Wunstorf) Schloßstraße",9.380325,52.411381,""
"907104","Großenheidorn Pickertsberg",9.377583,52.456157,""
"907400","Bokeloh(Wunstorf) Alte Dorfstraße",9.377178,52.416568,""
"907098","Steinhude Schlesierweg",9.37699,52.459743,""
"907034","Bokeloh(Wunstorf) Steinhuder Straße",9.375893,52.416982,""
"907402","Bokeloh(Wunstorf) Freibad",9.375524,52.42064,""
"903681","Rethmar Bode-Ring",9.999897,52.316968,""
"993681","Rethmar Bode-Ring",9.999511,52.316986,""
"903651","Gretenberg Im Dorfe",9.98956,52.297614,""
"993651","Gretenberg Im Dorfe",9.989362,52.297542,""
"903641","Gretenberg Friedhof",9.982098,52.301812,""
"993641","Gretenberg Friedhof",9.982,52.301767,""
"903673","Sehnde Boschstraße",9.980723,52.320752,""
"921500","Algermissen Siedlung",9.980462,52.253027,""
"913635","Sehnde Friedhof",9.977748,52.314541,""
"903679","Sehnde Billerbachstraße",9.977568,52.317363,""
"993671","Sehnde Haydnstraße",9.97657,52.316123,""
"903671","Sehnde Haydnstraße",9.976543,52.316222,""
"921519","Ummeln(Algermissen)",9.975833,52.281703,""
"921520","Wätzum",9.975105,52.274062,""
"903677","Sehnde Achardstraße",9.973586,52.318954,""
"993631","Sehnde Stettiner Weg",9.973253,52.307673,""
"903631","Sehnde Stettiner Weg",9.973154,52.307916,""
"921501","Algermissen Kirche",9.972408,52.253693,""
"903633","Sehnde Kanalstraße",9.971302,52.31045,""
"903675","Sehnde Marggrafstraße",9.970053,52.317138,""
"921496","Harsum Industriegebiet",9.969657,52.213592,""
"993781","Sehnde Zuckerfabriksweg",9.969073,52.315098,""
"993784","Sehnde Breite Straße",9.968516,52.314639,""
"903784","Sehnde Breite Straße",9.968435,52.314666,""
"903781","Sehnde Zuckerfabriksweg",9.968012,52.31535,""
"993621","Sehnde Ladeholzstraße",9.966934,52.311089,""
"903621","Sehnde Ladeholzstraße",9.96679,52.311367,""
"909918","Algermissen Bahnhof",9.966134,52.252344,""
"921498","Harsum Morgenstern",9.965001,52.20756,""
"921497","Harsum Kaiserstraße",9.964929,52.209609,""
"921492","Harsum Siedlung",9.964911,52.203865,""
"993611","Sehnde Bahnhof",9.964587,52.315835,""
"983611","Sehnde Bahnhof",9.963895,52.315062,""
"921522","Algermissen Heerstraße",9.963707,52.256614,""
"993625","Sehnde Am Ahrenberge",9.963428,52.307871,""
"903625","Sehnde Am Ahrenberge",9.963284,52.307924,""
"903611","Sehnde Bahnhof",9.963176,52.316347,""
"921503","Algermissen Tiefenbek",9.962376,52.261333,""
"921493","Harsum Grundschule",9.961387,52.205924,""
"993751","Sehnde An der Schleuse",9.958376,52.301794,""
"903751","Sehnde An der Schleuse",9.958268,52.301866,""
"993591","Sehnde Schulzentrum (B 65)",9.957846,52.318307,""
"903591","Sehnde Schulzentrum (B 65)",9.957495,52.318721,""
"993593","Sehnde Schulzentrum",9.957468,52.318981,""
"903593","Sehnde Schulzentrum",9.95736,52.3189,""
"921495","Harsum Schulzentrum",9.956731,52.205933,""
"993571","Sehnde Waldstraße",9.954241,52.321669,""
"903571","Sehnde Waldstraße",9.954205,52.321966,""
"921504","Lühnde Südsiedlung",9.952407,52.271042,""
"903581","Sehnde Wilhelm-Henze-Weg",9.951877,52.319386,""
"993581","Sehnde Wilhelm-Henze-Weg",9.951212,52.319395,""
"921509","Lühnde Schule",9.951176,52.276687,""
"903845","Lühnde Am Brink",9.950528,52.274224,""
"903842","Lühnde Schachtweg",9.949683,52.277235,""
"993842","Lühnde Schachtweg",9.949477,52.277127,""
"903838","Bolzum Am Mühlenberg",9.945908,52.295277,""
"993838","Bolzum Am Mühlenberg",9.945728,52.295313,""
"903561","Köthenwald",9.94553,52.333391,""
"993561","Köthenwald",9.945512,52.333274,""
"903846","Bolzum Am Anger",9.944982,52.293973,""
"993836","Bolzum Boltessemstraße",9.944281,52.29614,""
"903836","Bolzum Boltessemstraße",9.944236,52.296176,""
"903529","Ilten Am Park",9.936874,52.341796,""
"993529","Ilten Am Park",9.936514,52.341248,""
"993834","Wehmingen",9.934869,52.295924,""
"903834","Wehmingen",9.934267,52.295933,""
"903531","Ilten Habichtshorst",9.932406,52.339809,""
"903551","Wassel",9.930824,52.320455,""
"993551","Wassel",9.92979,52.320339,""
"921872","Klein Förste Hauptstraße",9.925952,52.214293,""
"921505","Bledeln Thie",9.924172,52.270655,""
"903830","Wirringen",9.918239,52.294899,""
"903541","Bilm Reuteranger",9.914293,52.33882,""
"993541","Bilm Reuteranger",9.914275,52.338928,""
"903543","Bilm Freienstraße",9.913457,52.33954,""
"993543","Bilm Freienstraße",9.912935,52.339324,""
"903539","Bilm Am Wischhof",9.911147,52.341328,""
"993539","Bilm Am Wischhof",9.910994,52.341274,""
"903832","Müllingen Sarstedter Straße",9.910778,52.293542,""
"909516","Groß Förste",9.910742,52.208738,""
"993832","Müllingen Sarstedter Straße",9.910275,52.2932,""
"921871","Groß Förste Burgstraße",9.909591,52.209663,""
"921484","Hotteln Köhne",9.909475,52.252039,""
"921462","Hotteln Schulgasse",9.908234,52.256695,""
"903828","Müllingen Bokumer Straße",9.908135,52.294135,""
"993828","Müllingen Bokumer Straße",9.908063,52.294018,""
"993886","Müllingen Mühle",9.906167,52.28609,""
"903886","Müllingen Mühle",9.906014,52.286126,""
"921508","Hotteln Diestelberg",9.905663,52.255392,""
"921485","Gödringen Schacht",9.903407,52.246987,""
"903850","Ingeln Hasselweg",9.901807,52.277424,""
"993850","Ingeln Hasselweg",9.901115,52.277478,""
"903852","Ingeln Hauptstraße",9.897537,52.278143,""
"993852","Ingeln Hauptstraße",9.897402,52.27808,""
"903856","Ingeln Auf der Maine",9.897366,52.278341,""
"921486","Gödringen Am Hilgenkamp",9.896629,52.244056,""
"903826","Müllingen Tivoli",9.895442,52.309426,""
"993826","Müllingen Tivoli",9.895299,52.309399,""
"921506","Gödringen Zimmerplatz",9.895182,52.241314,""
"909504","Ahrbergen Weg nach Ahrbergen",9.889914,52.223507,""
"993854","Oesselse St. Nicolai-Kirche",9.886732,52.279878,""
"903854","Oesselse St. Nicolai-Kirche",9.8855,52.279887,""
"909502","Ahrbergen Ost",9.88292,52.222203,""
"909503","Ahrbergen Süd",9.879747,52.218769,""
"909500","Ahrbergen Nord",9.877006,52.223812,""
"993840","Oesselse Heidfeldweg",9.876835,52.279779,""
"903840","Oesselse Heidfeldweg",9.876799,52.279887,""
"922848","Sarstedt Am Sonnenkamp",9.875253,52.243157,""
"921464","Giesen Schacht",9.874929,52.203569,""
"922849","Sarstedt Seniorenheim",9.872053,52.242654,""
"901751","Sarstedt Ziegelei",9.871378,52.235426,""
"921482","Sarstedt Lindenallee",9.870417,52.2362,""
"921481","Sarstedt Hochhaus",9.868232,52.23833,""
"901741","Sarstedt Am Ried",9.863845,52.233772,""
"921480","Sarstedt Friedhof",9.862398,52.236496,""
"921483","Sarstedt Wellweg/Röntgenstraße",9.86167,52.24393,""
"9101731","Sarstedt Stadtbahn",9.858829,52.234222,""
"901731","Sarstedt (Endpunkt GVH)",9.858353,52.236092,""
"961731","Sarstedt (Endpunkt GVH)",9.858101,52.23593,""
"921479","Sarstedt Schulzentrum",9.857436,52.240245,""
"991711","Sarstedt Am Boksberg",9.856861,52.2482,""
"991721","Sarstedt Röntgenstraße",9.85678,52.243975,""
"901711","Sarstedt Am Boksberg",9.856726,52.248209,""
"901721","Sarstedt Röntgenstraße",9.856672,52.243121,""
"901701","Heisede Langer Kamp",9.855899,52.257819,""
"991701","Heisede Langer Kamp",9.855764,52.258034,""
"921478","Sarstedt Hahnenstein",9.854784,52.234078,""
"921476","Sarstedt GS Regenbogenschule",9.854775,52.23282,""
"921502","Sarstedt Innerstebad",9.852016,52.234833,""
"901683","Gleidingen Am Radlah",9.851243,52.274539,""
"901691","Heisede Marienburger Straße",9.850469,52.259913,""
"991683","Gleidingen Am Radlah",9.850389,52.274431,""
"991691","Heisede Marienburger Straße",9.850263,52.259967,""
"903824","Hannover Kirchbichler Straße",9.849777,52.326325,""
"993824","Hannover Kirchbichler Straße",9.849606,52.326236,""
"993822","Hannover Wülferoder Platz",9.848986,52.329067,""
"903822","Hannover Wülferoder Platz",9.848887,52.329696,""
"921477","Sarstedt GS Kastanienhof",9.848042,52.235831,""
"921474","Sarstedt Voßstraße",9.845741,52.23184,""
"901471","Laatzen Eichstraße (Bahnhof)",9.792013,52.314774,""
"981471","Laatzen Eichstraße (Bahnhof)",9.791932,52.315143,""
"901401","Hannover Stadtfriedhof Seelhorst",9.791905,52.335126,""
"971471","Laatzen Eichstraße (Bahnhof)",9.791734,52.315143,""
"971401","Hannover Stadtfriedhof Seelhorst",9.791186,52.335207,""
"991401","Hannover Stadtfriedhof Seelhorst",9.790979,52.335117,""
"901455","Laatzen Münchener Straße",9.790125,52.317201,""
"981401","Hannover Stadtfriedhof Seelhorst",9.790098,52.335063,""
"901445","Hannover Karlsruher Straße",9.789711,52.331503,""
"993950","Jeinsen An der Schmiede",9.789244,52.216333,""
"903950","Jeinsen An der Schmiede",9.789199,52.216199,""
"991445","Hannover Karlsruher Straße",9.789064,52.331386,""
"901438","Hannover Bahnhof Wülfel",9.787302,52.324519,""
"991451","Laatzen Werner-von-Siemens-Platz",9.787069,52.319161,""
"901451","Laatzen Werner-von-Siemens-Platz",9.78697,52.319107,""
"991217","Hannover Mergenthalerweg",9.786259,52.341337,""
"901217","Hannover Mergenthalerweg",9.786107,52.341382,""
"993920","Reden Ihssengasse",9.785918,52.280606,""
"903920","Reden Ihssengasse",9.785783,52.280534,""
"901271","Hannover Neisser Weg",9.784767,52.334865,""
"991271","Hannover Neisser Weg",9.784731,52.334955,""
"971441","Hannover Am Brabrinke",9.784228,52.323485,""
"991241","Hannover Elsenborner Straße",9.784003,52.340394,""
"901241","Hannover Elsenborner Straße",9.783841,52.340456,""
"991441","Hannover Am Brabrinke",9.783805,52.323377,""
"991251","Hannover Hoher Weg",9.783536,52.338326,""
"901251","Hannover Hoher Weg",9.78341,52.338389,""
"961441","Hannover Am Brabrinke",9.783311,52.323737,""
"941441","Hannover Am Brabrinke",9.783257,52.323116,""
"901441","Hannover Am Brabrinke",9.783149,52.323557,""
"901436","Hannover Behnstraße",9.783131,52.325355,""
"981441","Hannover Am Brabrinke",9.783122,52.32379,""
"901439","Hannover Claudiusstraße",9.782124,52.329022,""
"910071","Hannover Claudiusstraße",9.782071,52.328932,""
"903972","Reden Birkenweg",9.781145,52.281469,""
"991221","Hannover Friedhofsallee",9.780596,52.33927,""
"991433","Hannover Dorfstraße",9.780417,52.328474,""
"901221","Hannover Friedhofsallee",9.78039,52.339261,""
"991211","Hannover Eupener Straße",9.780264,52.343279,""
"901211","Hannover Eupener Straße",9.780093,52.343252,""
"910273","Pattensen(b Hannover) Briefzentrum",9.779859,52.260947,""
"901433","Hannover Dorfstraße",9.779814,52.327575,""
"903891","Pattensen(b Hannover) Walter-Bruch-Straße",9.778619,52.265289,""
"901431","Hannover Wiehbergstraße",9.776812,52.328546,""
"991431","Hannover Wiehbergstraße",9.776569,52.328833,""
"903893","Pattensen(b Hannover) Ludwig-Erhard-Straße",9.77612,52.269046,""
"901231","Hannover Holthusenstraße",9.774888,52.338847,""
"991231","Hannover Holthusenstraße",9.774502,52.339063,""
"901391","Hannover Bothmerstraße",9.773315,52.332663,""
"991391","Hannover Bothmerstraße",9.773045,52.333139,""
"901379","Hannover Döhren/Betriebshof",9.770304,52.337301,""
"910189","Hannover Kastanienallee",9.770268,52.334613,""
"990189","Hannover Kastanienallee",9.770106,52.334524,""
"903928","Pattensen(b Hannover) Koldinger Straße",9.769827,52.265945,""
"993928","Pattensen(b Hannover) Koldinger Straße",9.769486,52.265963,""
"981381","Hannover Peiner Straße",9.769486,52.338227,""
"971381","Hannover Peiner Straße",9.769252,52.337778,""
"991381","Hannover Peiner Straße",9.769018,52.337769,""
"901381","Hannover Peiner Straße",9.768883,52.337742,""
"901841","Hannover Jugendgästehaus",9.767643,52.323386,""
"903862","Harkenbleck Hallerskamp",9.766402,52.288975,""
"993896","Reden Harkenblecker Straße",9.766366,52.279393,""
"903924","Reden Mühle",9.766061,52.279537,""
"903896","Reden Harkenblecker Straße",9.76598,52.279267,""
"901361","Hannover Fiedelerstraße",9.765971,52.341113,""
"991361","Hannover Fiedelerstraße",9.76571,52.34158,""
"910191","Hannover Neckarstraße",9.765422,52.333481,""
"990191","Hannover Neckarstraße",9.764937,52.333526,""
"903915","Pattensen(b Hannover) ZOB",9.764811,52.263068,""
"993948","Vardegötzen",9.764748,52.21521,""
"903948","Vardegötzen",9.764029,52.215048,""
"903888","Harkenbleck Im Häge",9.763984,52.291465,""
"903926","Pattensen(b Hannover) Schöneberger Straße",9.763382,52.268543,""
"993926","Pattensen(b Hannover) Schöneberger Straße",9.763139,52.268705,""
"995391","Hannover Landwehrstraße",9.761854,52.33571,""
"905391","Hannover Landwehrstraße",9.761683,52.335782,""
"903932","Pattensen(b Hannover) Nordstraße",9.761296,52.266745,""
"993932","Pattensen(b Hannover) Nordstraße",9.76073,52.26679,""
"993916","Pattensen(b Hannover) Neuer Weg",9.760622,52.259724,""
"903916","Pattensen(b Hannover) Neuer Weg",9.760137,52.259419,""
"903912","Pattensen(b Hannover) Schulzentrum",9.759121,52.259967,""
"995381","Hannover Brückstraße",9.755516,52.332285,""
"905381","Hannover Brückstraße",9.755292,52.332231,""
"993934","Pattensen(b Hannover) Max-Eyth-Straße",9.754833,52.265729,""
"903860","Wilkenburg",9.754546,52.311484,""
"903934","Pattensen(b Hannover) Max-Eyth-Straße",9.754528,52.265522,""
"993860","Wilkenburg",9.754105,52.311358,""
"903938","Pattensen(b Hannover) Hiddestorfer Straße",9.750509,52.266017,""
"995383","Hemmingen(Han) Döhrener Straße",9.750402,52.327368,""
"905383","Hemmingen(Han) Döhrener Straße",9.750285,52.327404,""
"903956","Thiedenwiese Weheweg",9.749619,52.215992,""
"995361","Hemmingen(Han) Kapellenweg",9.748379,52.319952,""
"905361","Hemmingen(Han) Kapellenweg",9.747795,52.320833,""
"903946","Thiedenwiese",9.74739,52.215911,""
"993946","Thiedenwiese",9.747372,52.216235,""
"903936","Pattensen(b Hannover) Am Hallenbad",9.747174,52.263895,""
"903944","Oerie",9.747013,52.234914,""
"995371","Hemmingen(Han) Dorfstraße",9.746284,52.324276,""
"905371","Hemmingen(Han) Dorfstraße",9.74624,52.324402,""
"903848","Arnum Astrid-Lindgren-Straße",9.746159,52.294746,""
"993944","Oerie",9.745242,52.234483,""
"905344","Hemmingen(Han) KGS",9.743741,52.326298,""
"995344","Hemmingen(Han) KGS",9.743696,52.326406,""
"985344","Hemmingen(Han) KGS",9.743651,52.326236,""
"995341","Hemmingen(Han) Börie",9.743498,52.325193,""
"905341","Hemmingen(Han) Börie",9.743489,52.325274,""
"903858","Arnum Harkenblecker Weg",9.742716,52.299205,""
"903868","Arnum Pattenser Feldweg",9.741745,52.298405,""
"903872","Arnum Wilkenburger Straße",9.740666,52.302423,""
"993872","Arnum Wilkenburger Straße",9.740567,52.302324,""
"903866","Arnum Mitte",9.73752,52.305003,""
"995331","Hemmingen(Han) Am Sportfeld",9.737187,52.325642,""
"905331","Hemmingen(Han) Am Sportfeld",9.737187,52.325696,""
"903942","Hüpede Schule",9.7369,52.240407,""
"993942","Hüpede Schule",9.736675,52.240433,""
"993870","Arnum Lerchenweg",9.736603,52.29685,""
"903870","Arnum Lerchenweg",9.736585,52.296688,""
"903864","Arnum Mühlenweg",9.734922,52.308518,""
"903984","Hüpede Im Felde",9.734167,52.243445,""
"993984","Hüpede Im Felde",9.733843,52.244038,""
"993940","Hüpede Krugstraße",9.731506,52.243733,""
"903940","Hüpede Krugstraße",9.731066,52.243706,""
"995321","Westerfeld(Hemmingen) Köllnbrinkweg",9.730517,52.324033,""
"905321","Westerfeld(Hemmingen) Köllnbrinkweg",9.730401,52.32406,""
"995301","Westerfeld(Hemmingen) Weetzener Landstraße",9.7288,52.318622,""
"985301","Westerfeld(Hemmingen) Weetzener Landstraße",9.728036,52.31935,""
"975301","Westerfeld(Hemmingen) Weetzener Landstraße",9.727911,52.319107,""
"905301","Westerfeld(Hemmingen) Weetzener Landstraße",9.727066,52.318406,""
"905291","Westerfeld(Hemmingen) Berliner Straße",9.726463,52.322865,""
"995291","Westerfeld(Hemmingen) Berliner Straße",9.725852,52.322586,""
"990961","Hannover Beekestraße",9.725142,52.34354,""
"900961","Hannover Beekestraße",9.725106,52.343324,""
"995281","Westerfeld(Hemmingen) Deveser Straße",9.723766,52.324626,""
"905281","Westerfeld(Hemmingen) Deveser Straße",9.723578,52.325139,""
"985281","Westerfeld(Hemmingen) Deveser Straße",9.722868,52.324824,""
"905305","Westerfeld(Hemmingen) Alfred-Bentz-Straße",9.7216,52.31704,""
"905279","Westerfeld(Hemmingen) Saarstraße",9.720306,52.330254,""
"995279","Westerfeld(Hemmingen) Saarstraße",9.720234,52.329813,""
"950971","Hannover Wallensteinstraße",9.718598,52.341976,""
"900971","Hannover Wallensteinstraße",9.717968,52.342003,""
"905271","Hannover Stadtfriedhof Ricklingen",9.717384,52.332762,""
"990971","Hannover Wallensteinstraße",9.717186,52.342695,""
"905267","Hannover Menzelstraße",9.71707,52.338901,""
"960971","Hannover Wallensteinstraße",9.717052,52.342398,""
"970971","Hannover Wallensteinstraße",9.717034,52.342083,""
"995271","Hannover Stadtfriedhof Ricklingen",9.716989,52.333004,""
"995267","Hannover Menzelstraße",9.716935,52.338856,""
"980971","Hannover Wallensteinstraße",9.716386,52.341859,""
"905284","Westerfeld(Hemmingen) Queckenhorst",9.716243,52.322181,""
"993874","Ohlendorf(Hemmingen)",9.716036,52.286944,""
"903874","Ohlendorf(Hemmingen)",9.715892,52.2868,""
"903880","Devese Am Hohen Holz",9.714004,52.305102,""
"903884","Hiddestorf(Hemmingen) Wiesenweg",9.712836,52.283824,""
"905311","Devese Stadtweg",9.712701,52.31561,""
"993884","Hiddestorf(Hemmingen) Wiesenweg",9.712638,52.283887,""
"903876","Hiddestorf(Hemmingen) Junkerngarten",9.712143,52.279806,""
"995960","Gestorf Osterfeldstraße",9.711182,52.215183,""
"905960","Gestorf Osterfeldstraße",9.710858,52.214751,""
"905958","Gestorf Lindertsweg",9.710768,52.218608,""
"995958","Gestorf Lindertsweg",9.710723,52.218689,""
"990981","Hannover Bartold-Knaust-Straße",9.709941,52.341985,""
"905313","Devese Breite Straße",9.709653,52.314469,""
"900981","Hannover Bartold-Knaust-Straße",9.709564,52.341994,""
"995313","Devese Breite Straße",9.709213,52.314424,""
"903882","Hiddestorf(Hemmingen) Auf der Masch",9.708413,52.283087,""
"993882","Hiddestorf(Hemmingen) Auf der Masch",9.706903,52.282952,""
"993878","Hiddestorf(Hemmingen) Ihmer Straße",9.704799,52.280543,""
"905962","Gestorf Calenberger Straße",9.704655,52.212207,""
"903878","Hiddestorf(Hemmingen) Ihmer Straße",9.704485,52.280714,""
"990991","Hannover Am Sauerwinkel",9.702579,52.341319,""
"900991","Hannover Am Sauerwinkel",9.701878,52.341427,""
"905956","Gestorf Hannoversche Straße",9.701644,52.216396,""
"905201","Hannover Konradstraße",9.700961,52.333256,""
"995201","Hannover Konradstraße",9.700727,52.333328,""
"995203","Hannover Grundschule Wettbergen",9.700062,52.329256,""
"905203","Hannover Grundschule Wettbergen",9.699864,52.328842,""
"905211","Hannover Poggendiek",9.699855,52.331054,""
"995211","Hannover Poggendiek",9.69972,52.331117,""
"995213","Hannover Aarhushof",9.699046,52.335009,""
"905213","Hannover Aarhushof",9.699037,52.335198,""
"995191","Hannover Lohfeldweg",9.696457,52.336825,""
"905221","Hannover Neue Straße",9.696313,52.328878,""
"905191","Hannover Lohfeldweg",9.696313,52.337014,""
"995221","Hannover Neue Straße",9.695612,52.329094,""
"905193","Hannover Pater-Kolbe-Gang",9.693913,52.338362,""
"995193","Hannover Pater-Kolbe-Gang",9.693689,52.338371,""
"991001","Hannover Mühlenberger Markt",9.693572,52.341328,""
"981001","Hannover Mühlenberger Markt (U)",9.69341,52.34123,""
"901001","Hannover Mühlenberger Markt (U)",9.693266,52.341167,""
"995209","Hannover An der Kirche",9.692115,52.329678,""
"995218","Hannover Hangstraße",9.691819,52.331287,""
"905218","Hannover Hangstraße",9.691612,52.331045,""
"905209","Hannover An der Kirche",9.691531,52.329957,""
"995181","Hannover Wettbergen",9.691351,52.333445,""
"985181","Hannover Wettbergen",9.690875,52.332986,""
"905181","Hannover Wettbergen",9.69074,52.332915,""
"995177","Hannover Tresckowstraße",9.690596,52.336546,""
"905177","Hannover Tresckowstraße",9.69056,52.336285,""
"905215","Hannover Distelborn",9.690228,52.329301,""
"921065","Hildesheim Großer Saatner",9.974961,52.132015,""
